{
   "plus_code" : {
      "compound_code" : "QWCQ+9JV İzmit/Kocaeli, Turkey",
      "global_code" : "8GGFQWCQ+9JV"
   },
   "results" : [
      {
         "address_components" : [
            {
               "long_name" : "7",
               "short_name" : "7",
               "types" : [ "street_number" ]
            },
            {
               "long_name" : "Özkan Sokak",
               "short_name" : "Özkan Sk.",
               "types" : [ "route" ]
            },
            {
               "long_name" : "Topçular",
               "short_name" : "Topçular",
               "types" : [ "administrative_area_level_4", "political" ]
            },
            {
               "long_name" : "İzmit",
               "short_name" : "İzmit",
               "types" : [ "administrative_area_level_2", "political" ]
            },
            {
               "long_name" : "Kocaeli",
               "short_name" : "Kocaeli",
               "types" : [ "administrative_area_level_1", "political" ]
            },
            {
               "long_name" : "Turkey",
               "short_name" : "TR",
               "types" : [ "country", "political" ]
            },
            {
               "long_name" : "41300",
               "short_name" : "41300",
               "types" : [ "postal_code" ]
            }
         ],
         "formatted_address" : "Topçular, Özkan Sk. No:7, 41300 İzmit/Kocaeli, Turkey",
         "geometry" : {
            "location" : {
               "lat" : 40.7709418,
               "lng" : 29.9390558
            },
            "location_type" : "ROOFTOP",
            "viewport" : {
               "northeast" : {
                  "lat" : 40.7722907802915,
                  "lng" : 29.9404047802915
               },
               "southwest" : {
                  "lat" : 40.7695928197085,
                  "lng" : 29.9377068197085
               }
            }
         },
         "place_id" : "ChIJpRk1YYVPyxQRhrQ9tWqIuaY",
         "plus_code" : {
            "compound_code" : "QWCQ+9J İzmit/Kocaeli, Turkey",
            "global_code" : "8GGFQWCQ+9J"
         },
         "types" : [ "street_address" ]
      },
      {
         "address_components" : [
            {
               "long_name" : "7",
               "short_name" : "7",
               "types" : [ "street_number" ]
            },
            {
               "long_name" : "Özkan Sokak",
               "short_name" : "Özkan Sk.",
               "types" : [ "route" ]
            },
            {
               "long_name" : "Topçular",
               "short_name" : "Topçular",
               "types" : [ "administrative_area_level_4", "political" ]
            },
            {
               "long_name" : "İzmit",
               "short_name" : "İzmit",
               "types" : [ "administrative_area_level_2", "political" ]
            },
            {
               "long_name" : "Kocaeli",
               "short_name" : "Kocaeli",
               "types" : [ "administrative_area_level_1", "political" ]
            },
            {
               "long_name" : "Turkey",
               "short_name" : "TR",
               "types" : [ "country", "political" ]
            },
            {
               "long_name" : "41300",
               "short_name" : "41300",
               "types" : [ "postal_code" ]
            }
         ],
         "formatted_address" : "Topçular, Özkan Sk. No:7, 41300 İzmit/Kocaeli, Turkey",
         "geometry" : {
            "location" : {
               "lat" : 40.7708911,
               "lng" : 29.9390917
            },
            "location_type" : "RANGE_INTERPOLATED",
            "viewport" : {
               "northeast" : {
                  "lat" : 40.7722400802915,
                  "lng" : 29.9404406802915
               },
               "southwest" : {
                  "lat" : 40.7695421197085,
                  "lng" : 29.9377427197085
               }
            }
         },
         "place_id" : "EjhUb3DDp3VsYXIsIMOWemthbiBTay4gTm86NywgNDEzMDAgxLB6bWl0L0tvY2FlbGksIFR1cmtleSIaEhgKFAoSCe-qGGSFT8sUEQNLb7q1WuHbEAc",
         "types" : [ "street_address" ]
      },
      {
         "address_components" : [
            {
               "long_name" : "QWCQ+9J",
               "short_name" : "QWCQ+9J",
               "types" : [ "plus_code" ]
            },
            {
               "long_name" : "İzmit",
               "short_name" : "İzmit",
               "types" : [ "administrative_area_level_2", "political" ]
            },
            {
               "long_name" : "Kocaeli",
               "short_name" : "Kocaeli",
               "types" : [ "administrative_area_level_1", "political" ]
            },
            {
               "long_name" : "Turkey",
               "short_name" : "TR",
               "types" : [ "country", "political" ]
            }
         ],
         "formatted_address" : "QWCQ+9J İzmit/Kocaeli, Turkey",
         "geometry" : {
            "bounds" : {
               "northeast" : {
                  "lat" : 40.771,
                  "lng" : 29.939125
               },
               "southwest" : {
                  "lat" : 40.770875,
                  "lng" : 29.939
               }
            },
            "location" : {
               "lat" : 40.7709869,
               "lng" : 29.9390316
            },
            "location_type" : "GEOMETRIC_CENTER",
            "viewport" : {
               "northeast" : {
                  "lat" : 40.7722864802915,
                  "lng" : 29.94041148029149
               },
               "southwest" : {
                  "lat" : 40.7695885197085,
                  "lng" : 29.9377135197085
               }
            }
         },
         "place_id" : "GhIJfJLgsq9iREARGun7X2TwPUA",
         "plus_code" : {
            "compound_code" : "QWCQ+9J İzmit/Kocaeli, Turkey",
            "global_code" : "8GGFQWCQ+9J"
         },
         "types" : [ "plus_code" ]
      },
      {
         "address_components" : [
            {
               "long_name" : "1-10",
               "short_name" : "1-10",
               "types" : [ "street_number" ]
            },
            {
               "long_name" : "Özkan Sokak",
               "short_name" : "Özkan Sk.",
               "types" : [ "route" ]
            },
            {
               "long_name" : "Cedit",
               "short_name" : "Cedit",
               "types" : [ "administrative_area_level_4", "political" ]
            },
            {
               "long_name" : "İzmit",
               "short_name" : "İzmit",
               "types" : [ "administrative_area_level_2", "political" ]
            },
            {
               "long_name" : "Kocaeli",
               "short_name" : "Kocaeli",
               "types" : [ "administrative_area_level_1", "political" ]
            },
            {
               "long_name" : "Turkey",
               "short_name" : "TR",
               "types" : [ "country", "political" ]
            },
            {
               "long_name" : "41300",
               "short_name" : "41300",
               "types" : [ "postal_code" ]
            }
         ],
         "formatted_address" : "Cedit, Özkan Sk. 1-10, 41300 İzmit/Kocaeli, Turkey",
         "geometry" : {
            "bounds" : {
               "northeast" : {
                  "lat" : 40.7709599,
                  "lng" : 29.9392432
               },
               "southwest" : {
                  "lat" : 40.77077209999999,
                  "lng" : 29.9386702
               }
            },
            "location" : {
               "lat" : 40.77084,
               "lng" : 29.9389686
            },
            "location_type" : "GEOMETRIC_CENTER",
            "viewport" : {
               "northeast" : {
                  "lat" : 40.77221498029149,
                  "lng" : 29.9403056802915
               },
               "southwest" : {
                  "lat" : 40.7695170197085,
                  "lng" : 29.9376077197085
               }
            }
         },
         "place_id" : "ChIJ76oYZIVPyxQRAktvurVa4ds",
         "types" : [ "route" ]
      },
      {
         "address_components" : [
            {
               "long_name" : "41300",
               "short_name" : "41300",
               "types" : [ "postal_code" ]
            },
            {
               "long_name" : "Topçular",
               "short_name" : "Topçular",
               "types" : [ "administrative_area_level_4", "political" ]
            },
            {
               "long_name" : "İzmit",
               "short_name" : "İzmit",
               "types" : [ "administrative_area_level_2", "political" ]
            },
            {
               "long_name" : "Kocaeli",
               "short_name" : "Kocaeli",
               "types" : [ "administrative_area_level_1", "political" ]
            },
            {
               "long_name" : "Turkey",
               "short_name" : "TR",
               "types" : [ "country", "political" ]
            }
         ],
         "formatted_address" : "Topçular, 41300 İzmit/Kocaeli, Turkey",
         "geometry" : {
            "bounds" : {
               "northeast" : {
                  "lat" : 40.7853179,
                  "lng" : 29.942597
               },
               "southwest" : {
                  "lat" : 40.7706041,
                  "lng" : 29.9302641
               }
            },
            "location" : {
               "lat" : 40.77521369999999,
               "lng" : 29.9364694
            },
            "location_type" : "APPROXIMATE",
            "viewport" : {
               "northeast" : {
                  "lat" : 40.7853179,
                  "lng" : 29.942597
               },
               "southwest" : {
                  "lat" : 40.7706041,
                  "lng" : 29.9302641
               }
            }
         },
         "place_id" : "ChIJhbehAX5FyxQR3o5hrwyHrNc",
         "types" : [ "postal_code" ]
      },
      {
         "address_components" : [
            {
               "long_name" : "Topçular",
               "short_name" : "Topçular",
               "types" : [ "administrative_area_level_4", "political" ]
            },
            {
               "long_name" : "İzmit",
               "short_name" : "İzmit",
               "types" : [ "administrative_area_level_2", "political" ]
            },
            {
               "long_name" : "Kocaeli",
               "short_name" : "Kocaeli",
               "types" : [ "administrative_area_level_1", "political" ]
            },
            {
               "long_name" : "Turkey",
               "short_name" : "TR",
               "types" : [ "country", "political" ]
            },
            {
               "long_name" : "41300",
               "short_name" : "41300",
               "types" : [ "postal_code" ]
            }
         ],
         "formatted_address" : "Topçular, 41300 İzmit/Kocaeli, Turkey",
         "geometry" : {
            "bounds" : {
               "northeast" : {
                  "lat" : 40.7853179,
                  "lng" : 29.942597
               },
               "southwest" : {
                  "lat" : 40.7706041,
                  "lng" : 29.9302641
               }
            },
            "location" : {
               "lat" : 40.77521369999999,
               "lng" : 29.9364694
            },
            "location_type" : "APPROXIMATE",
            "viewport" : {
               "northeast" : {
                  "lat" : 40.7853179,
                  "lng" : 29.942597
               },
               "southwest" : {
                  "lat" : 40.7706041,
                  "lng" : 29.9302641
               }
            }
         },
         "place_id" : "ChIJITMfyZtPyxQRnv8XwJrbNeY",
         "types" : [ "administrative_area_level_4", "political" ]
      },
      {
         "address_components" : [
            {
               "long_name" : "İzmit",
               "short_name" : "İzmit",
               "types" : [ "locality", "political" ]
            },
            {
               "long_name" : "İzmit",
               "short_name" : "İzmit",
               "types" : [ "administrative_area_level_2", "political" ]
            },
            {
               "long_name" : "Kocaeli",
               "short_name" : "Kocaeli",
               "types" : [ "administrative_area_level_1", "political" ]
            },
            {
               "long_name" : "Turkey",
               "short_name" : "TR",
               "types" : [ "country", "political" ]
            }
         ],
         "formatted_address" : "İzmit, Kocaeli, Turkey",
         "geometry" : {
            "bounds" : {
               "northeast" : {
                  "lat" : 40.805401,
                  "lng" : 30.014834
               },
               "southwest" : {
                  "lat" : 40.736827,
                  "lng" : 29.8541681
               }
            },
            "location" : {
               "lat" : 40.7654408,
               "lng" : 29.9408089
            },
            "location_type" : "APPROXIMATE",
            "viewport" : {
               "northeast" : {
                  "lat" : 40.805401,
                  "lng" : 30.014834
               },
               "southwest" : {
                  "lat" : 40.736827,
                  "lng" : 29.8541681
               }
            }
         },
         "place_id" : "ChIJnftLZGZPyxQRuX5rWOcOaYI",
         "types" : [ "locality", "political" ]
      },
      {
         "address_components" : [
            {
               "long_name" : "İzmit",
               "short_name" : "İzmit",
               "types" : [ "administrative_area_level_2", "political" ]
            },
            {
               "long_name" : "Kocaeli",
               "short_name" : "Kocaeli",
               "types" : [ "administrative_area_level_1", "political" ]
            },
            {
               "long_name" : "Turkey",
               "short_name" : "TR",
               "types" : [ "country", "political" ]
            }
         ],
         "formatted_address" : "İzmit/Kocaeli, Turkey",
         "geometry" : {
            "bounds" : {
               "northeast" : {
                  "lat" : 40.971557,
                  "lng" : 30.2639339
               },
               "southwest" : {
                  "lat" : 40.720553,
                  "lng" : 29.8541681
               }
            },
            "location" : {
               "lat" : 40.8506635,
               "lng" : 30.0202964
            },
            "location_type" : "APPROXIMATE",
            "viewport" : {
               "northeast" : {
                  "lat" : 40.971557,
                  "lng" : 30.2639339
               },
               "southwest" : {
                  "lat" : 40.720553,
                  "lng" : 29.8541681
               }
            }
         },
         "place_id" : "ChIJL2DfPLZQyxQRitx6sY9PIGU",
         "types" : [ "administrative_area_level_2", "political" ]
      },
      {
         "address_components" : [
            {
               "long_name" : "Kocaeli",
               "short_name" : "Kocaeli",
               "types" : [ "administrative_area_level_1", "political" ]
            },
            {
               "long_name" : "Turkey",
               "short_name" : "TR",
               "types" : [ "country", "political" ]
            }
         ],
         "formatted_address" : "Kocaeli, Turkey",
         "geometry" : {
            "bounds" : {
               "northeast" : {
                  "lat" : 41.20976,
                  "lng" : 30.367743
               },
               "southwest" : {
                  "lat" : 40.524151,
                  "lng" : 29.3331261
               }
            },
            "location" : {
               "lat" : 40.8532704,
               "lng" : 29.8815203
            },
            "location_type" : "APPROXIMATE",
            "viewport" : {
               "northeast" : {
                  "lat" : 41.20976,
                  "lng" : 30.367743
               },
               "southwest" : {
                  "lat" : 40.524151,
                  "lng" : 29.3331261
               }
            }
         },
         "place_id" : "ChIJQ8zKb5QgyxQRWdhW642zLKg",
         "types" : [ "administrative_area_level_1", "political" ]
      },
      {
         "address_components" : [
            {
               "long_name" : "Turkey",
               "short_name" : "TR",
               "types" : [ "country", "political" ]
            }
         ],
         "formatted_address" : "Turkey",
         "geometry" : {
            "bounds" : {
               "northeast" : {
                  "lat" : 42.3666999,
                  "lng" : 44.8178449
               },
               "southwest" : {
                  "lat" : 35.808592,
                  "lng" : 25.5377
               }
            },
            "location" : {
               "lat" : 38.963745,
               "lng" : 35.243322
            },
            "location_type" : "APPROXIMATE",
            "viewport" : {
               "northeast" : {
                  "lat" : 42.3666999,
                  "lng" : 44.8178449
               },
               "southwest" : {
                  "lat" : 35.808592,
                  "lng" : 25.5377
               }
            }
         },
         "place_id" : "ChIJcSZPllwVsBQRKl9iKtTb2UA",
         "types" : [ "country", "political" ]
      }
   ],
   "status" : "OK"
}
