{
   "plus_code" : {
      "compound_code" : "QWVH+PV5 İzmit/Kocaeli, Turkey",
      "global_code" : "8GGFQWVH+PV5"
   },
   "results" : [
      {
         "address_components" : [
            {
               "long_name" : "No:484 / 161",
               "short_name" : "No:484 / 161",
               "types" : [ "subpremise" ]
            },
            {
               "long_name" : "Kabaoğlu",
               "short_name" : "Kabaoğlu",
               "types" : [ "administrative_area_level_4", "political" ]
            },
            {
               "long_name" : "İzmit",
               "short_name" : "İzmit",
               "types" : [ "administrative_area_level_2", "political" ]
            },
            {
               "long_name" : "Kocaeli",
               "short_name" : "Kocaeli",
               "types" : [ "administrative_area_level_1", "political" ]
            },
            {
               "long_name" : "Turkey",
               "short_name" : "TR",
               "types" : [ "country", "political" ]
            },
            {
               "long_name" : "41001",
               "short_name" : "41001",
               "types" : [ "postal_code" ]
            }
         ],
         "formatted_address" : "Kabaoğlu Mah. , Prof. Dr. Baki komşuoğlu Bulvarı Tepe Park Residence, Kabaoğlu, D:No:484 / 161, 41001 İzmit/Kocaeli, Turkey",
         "geometry" : {
            "location" : {
               "lat" : 40.7945131,
               "lng" : 29.929961
            },
            "location_type" : "ROOFTOP",
            "viewport" : {
               "northeast" : {
                  "lat" : 40.79586208029149,
                  "lng" : 29.9313099802915
               },
               "southwest" : {
                  "lat" : 40.79316411970849,
                  "lng" : 29.9286120197085
               }
            }
         },
         "place_id" : "ChIJheZwDcJPyxQR8V0qy5Yfcwk",
         "plus_code" : {
            "compound_code" : "QWVH+RX İzmit/Kocaeli, Turkey",
            "global_code" : "8GGFQWVH+RX"
         },
         "types" : [ "cafe", "establishment", "food", "point_of_interest", "store" ]
      },
      {
         "address_components" : [
            {
               "long_name" : "No:20",
               "short_name" : "No:20",
               "types" : [ "street_number" ]
            },
            {
               "long_name" : "Kocapınar Caddesi",
               "short_name" : "Kocapınar Cd.",
               "types" : [ "route" ]
            },
            {
               "long_name" : "Kabaoğlu",
               "short_name" : "Kabaoğlu",
               "types" : [ "administrative_area_level_4", "political" ]
            },
            {
               "long_name" : "İzmit",
               "short_name" : "İzmit",
               "types" : [ "administrative_area_level_2", "political" ]
            },
            {
               "long_name" : "Kocaeli",
               "short_name" : "Kocaeli",
               "types" : [ "administrative_area_level_1", "political" ]
            },
            {
               "long_name" : "Turkey",
               "short_name" : "TR",
               "types" : [ "country", "political" ]
            },
            {
               "long_name" : "41000",
               "short_name" : "41000",
               "types" : [ "postal_code" ]
            }
         ],
         "formatted_address" : "Kabaoğlu, Kocapınar Cd. No:20, 41000 İzmit/Kocaeli, Turkey",
         "geometry" : {
            "location" : {
               "lat" : 40.79364959999999,
               "lng" : 29.9303748
            },
            "location_type" : "ROOFTOP",
            "viewport" : {
               "northeast" : {
                  "lat" : 40.7949985802915,
                  "lng" : 29.9317237802915
               },
               "southwest" : {
                  "lat" : 40.7923006197085,
                  "lng" : 29.9290258197085
               }
            }
         },
         "place_id" : "ChIJkSrnaqxPyxQReT8572UBl0I",
         "plus_code" : {
            "compound_code" : "QWVJ+F4 İzmit/Kocaeli, Turkey",
            "global_code" : "8GGFQWVJ+F4"
         },
         "types" : [ "street_address" ]
      },
      {
         "address_components" : [
            {
               "long_name" : "Profesör Baki Komşuoğlu Bulvarı",
               "short_name" : "Prof. Baki Komşuoğlu Blv.",
               "types" : [ "route" ]
            },
            {
               "long_name" : "Kabaoğlu",
               "short_name" : "Kabaoğlu",
               "types" : [ "administrative_area_level_4", "political" ]
            },
            {
               "long_name" : "İzmit",
               "short_name" : "İzmit",
               "types" : [ "administrative_area_level_2", "political" ]
            },
            {
               "long_name" : "Kocaeli",
               "short_name" : "Kocaeli",
               "types" : [ "administrative_area_level_1", "political" ]
            },
            {
               "long_name" : "Turkey",
               "short_name" : "TR",
               "types" : [ "country", "political" ]
            },
            {
               "long_name" : "41000",
               "short_name" : "41000",
               "types" : [ "postal_code" ]
            }
         ],
         "formatted_address" : "Kabaoğlu, Prof. Baki Komşuoğlu Blv., 41000 İzmit/Kocaeli, Turkey",
         "geometry" : {
            "bounds" : {
               "northeast" : {
                  "lat" : 40.7955414,
                  "lng" : 29.9301534
               },
               "southwest" : {
                  "lat" : 40.7936641,
                  "lng" : 29.9291004
               }
            },
            "location" : {
               "lat" : 40.7944976,
               "lng" : 29.9299508
            },
            "location_type" : "GEOMETRIC_CENTER",
            "viewport" : {
               "northeast" : {
                  "lat" : 40.7959517302915,
                  "lng" : 29.9309758802915
               },
               "southwest" : {
                  "lat" : 40.7932537697085,
                  "lng" : 29.9282779197085
               }
            }
         },
         "place_id" : "ChIJUYuOQahPyxQRkuZXLGS-o74",
         "types" : [ "route" ]
      },
      {
         "address_components" : [
            {
               "long_name" : "QWVH+PV",
               "short_name" : "QWVH+PV",
               "types" : [ "plus_code" ]
            },
            {
               "long_name" : "İzmit",
               "short_name" : "İzmit",
               "types" : [ "administrative_area_level_2", "political" ]
            },
            {
               "long_name" : "Kocaeli",
               "short_name" : "Kocaeli",
               "types" : [ "administrative_area_level_1", "political" ]
            },
            {
               "long_name" : "Turkey",
               "short_name" : "TR",
               "types" : [ "country", "political" ]
            }
         ],
         "formatted_address" : "QWVH+PV İzmit/Kocaeli, Turkey",
         "geometry" : {
            "bounds" : {
               "northeast" : {
                  "lat" : 40.794375,
                  "lng" : 29.92975
               },
               "southwest" : {
                  "lat" : 40.79425,
                  "lng" : 29.929625
               }
            },
            "location" : {
               "lat" : 40.7942534,
               "lng" : 29.929719
            },
            "location_type" : "GEOMETRIC_CENTER",
            "viewport" : {
               "northeast" : {
                  "lat" : 40.7956614802915,
                  "lng" : 29.9310364802915
               },
               "southwest" : {
                  "lat" : 40.7929635197085,
                  "lng" : 29.9283385197085
               }
            }
         },
         "place_id" : "GhIJT95sGKplREARRnh7EALuPUA",
         "plus_code" : {
            "compound_code" : "QWVH+PV İzmit/Kocaeli, Turkey",
            "global_code" : "8GGFQWVH+PV"
         },
         "types" : [ "plus_code" ]
      },
      {
         "address_components" : [
            {
               "long_name" : "20",
               "short_name" : "20",
               "types" : [ "street_number" ]
            },
            {
               "long_name" : "Kocapınar Caddesi",
               "short_name" : "Kocapınar Cd.",
               "types" : [ "route" ]
            },
            {
               "long_name" : "Kabaoğlu",
               "short_name" : "Kabaoğlu",
               "types" : [ "administrative_area_level_4", "political" ]
            },
            {
               "long_name" : "İzmit",
               "short_name" : "İzmit",
               "types" : [ "administrative_area_level_2", "political" ]
            },
            {
               "long_name" : "Kocaeli",
               "short_name" : "Kocaeli",
               "types" : [ "administrative_area_level_1", "political" ]
            },
            {
               "long_name" : "Turkey",
               "short_name" : "TR",
               "types" : [ "country", "political" ]
            },
            {
               "long_name" : "41000",
               "short_name" : "41000",
               "types" : [ "postal_code" ]
            }
         ],
         "formatted_address" : "Kabaoğlu, Kocapınar Cd. No:20, 41000 İzmit/Kocaeli, Turkey",
         "geometry" : {
            "location" : {
               "lat" : 40.7938511,
               "lng" : 29.9301771
            },
            "location_type" : "RANGE_INTERPOLATED",
            "viewport" : {
               "northeast" : {
                  "lat" : 40.79520008029149,
                  "lng" : 29.9315260802915
               },
               "southwest" : {
                  "lat" : 40.79250211970849,
                  "lng" : 29.9288281197085
               }
            }
         },
         "place_id" : "Ej1LYWJhb8SfbHUsIEtvY2FwxLFuYXIgQ2QuIE5vOjIwLCA0MTAwMCDEsHptaXQvS29jYWVsaSwgVHVya2V5IhoSGAoUChIJX8rBL6lPyxQRTLw-Nri4Jm0QFA",
         "types" : [ "street_address" ]
      },
      {
         "address_components" : [
            {
               "long_name" : "Kabaoğlu",
               "short_name" : "Kabaoğlu",
               "types" : [ "administrative_area_level_4", "political" ]
            },
            {
               "long_name" : "İzmit",
               "short_name" : "İzmit",
               "types" : [ "administrative_area_level_2", "political" ]
            },
            {
               "long_name" : "Kocaeli",
               "short_name" : "Kocaeli",
               "types" : [ "administrative_area_level_1", "political" ]
            },
            {
               "long_name" : "Turkey",
               "short_name" : "TR",
               "types" : [ "country", "political" ]
            },
            {
               "long_name" : "41001",
               "short_name" : "41001",
               "types" : [ "postal_code" ]
            }
         ],
         "formatted_address" : "Kabaoğlu, 41001 İzmit/Kocaeli, Turkey",
         "geometry" : {
            "bounds" : {
               "northeast" : {
                  "lat" : 40.8372698,
                  "lng" : 29.9549829
               },
               "southwest" : {
                  "lat" : 40.7829559,
                  "lng" : 29.909588
               }
            },
            "location" : {
               "lat" : 40.8153455,
               "lng" : 29.9335779
            },
            "location_type" : "APPROXIMATE",
            "viewport" : {
               "northeast" : {
                  "lat" : 40.8372698,
                  "lng" : 29.9549829
               },
               "southwest" : {
                  "lat" : 40.7829559,
                  "lng" : 29.909588
               }
            }
         },
         "place_id" : "ChIJh_CYlVhOyxQRTnv2hYyW0D4",
         "types" : [ "administrative_area_level_4", "political" ]
      },
      {
         "address_components" : [
            {
               "long_name" : "41001",
               "short_name" : "41001",
               "types" : [ "postal_code" ]
            },
            {
               "long_name" : "Kabaoğlu",
               "short_name" : "Kabaoğlu",
               "types" : [ "administrative_area_level_4", "political" ]
            },
            {
               "long_name" : "İzmit",
               "short_name" : "İzmit",
               "types" : [ "administrative_area_level_2", "political" ]
            },
            {
               "long_name" : "Kocaeli",
               "short_name" : "Kocaeli",
               "types" : [ "administrative_area_level_1", "political" ]
            },
            {
               "long_name" : "Turkey",
               "short_name" : "TR",
               "types" : [ "country", "political" ]
            }
         ],
         "formatted_address" : "Kabaoğlu, 41001 İzmit/Kocaeli, Turkey",
         "geometry" : {
            "bounds" : {
               "northeast" : {
                  "lat" : 40.8372698,
                  "lng" : 29.9549829
               },
               "southwest" : {
                  "lat" : 40.7829559,
                  "lng" : 29.909588
               }
            },
            "location" : {
               "lat" : 40.8153455,
               "lng" : 29.9335779
            },
            "location_type" : "APPROXIMATE",
            "viewport" : {
               "northeast" : {
                  "lat" : 40.8372698,
                  "lng" : 29.9549829
               },
               "southwest" : {
                  "lat" : 40.7829559,
                  "lng" : 29.909588
               }
            }
         },
         "place_id" : "ChIJzVyvQVdOyxQRp3CshMoPibc",
         "types" : [ "postal_code" ]
      },
      {
         "address_components" : [
            {
               "long_name" : "İzmit",
               "short_name" : "İzmit",
               "types" : [ "administrative_area_level_2", "political" ]
            },
            {
               "long_name" : "Kocaeli",
               "short_name" : "Kocaeli",
               "types" : [ "administrative_area_level_1", "political" ]
            },
            {
               "long_name" : "Turkey",
               "short_name" : "TR",
               "types" : [ "country", "political" ]
            }
         ],
         "formatted_address" : "İzmit/Kocaeli, Turkey",
         "geometry" : {
            "bounds" : {
               "northeast" : {
                  "lat" : 40.971557,
                  "lng" : 30.2639339
               },
               "southwest" : {
                  "lat" : 40.720553,
                  "lng" : 29.8541681
               }
            },
            "location" : {
               "lat" : 40.8506635,
               "lng" : 30.0202964
            },
            "location_type" : "APPROXIMATE",
            "viewport" : {
               "northeast" : {
                  "lat" : 40.971557,
                  "lng" : 30.2639339
               },
               "southwest" : {
                  "lat" : 40.720553,
                  "lng" : 29.8541681
               }
            }
         },
         "place_id" : "ChIJL2DfPLZQyxQRitx6sY9PIGU",
         "types" : [ "administrative_area_level_2", "political" ]
      },
      {
         "address_components" : [
            {
               "long_name" : "Kocaeli",
               "short_name" : "Kocaeli",
               "types" : [ "administrative_area_level_1", "political" ]
            },
            {
               "long_name" : "Turkey",
               "short_name" : "TR",
               "types" : [ "country", "political" ]
            }
         ],
         "formatted_address" : "Kocaeli, Turkey",
         "geometry" : {
            "bounds" : {
               "northeast" : {
                  "lat" : 41.20976,
                  "lng" : 30.367743
               },
               "southwest" : {
                  "lat" : 40.524151,
                  "lng" : 29.3331261
               }
            },
            "location" : {
               "lat" : 40.8532704,
               "lng" : 29.8815203
            },
            "location_type" : "APPROXIMATE",
            "viewport" : {
               "northeast" : {
                  "lat" : 41.20976,
                  "lng" : 30.367743
               },
               "southwest" : {
                  "lat" : 40.524151,
                  "lng" : 29.3331261
               }
            }
         },
         "place_id" : "ChIJQ8zKb5QgyxQRWdhW642zLKg",
         "types" : [ "administrative_area_level_1", "political" ]
      },
      {
         "address_components" : [
            {
               "long_name" : "Turkey",
               "short_name" : "TR",
               "types" : [ "country", "political" ]
            }
         ],
         "formatted_address" : "Turkey",
         "geometry" : {
            "bounds" : {
               "northeast" : {
                  "lat" : 42.3666999,
                  "lng" : 44.8178449
               },
               "southwest" : {
                  "lat" : 35.808592,
                  "lng" : 25.5377
               }
            },
            "location" : {
               "lat" : 38.963745,
               "lng" : 35.243322
            },
            "location_type" : "APPROXIMATE",
            "viewport" : {
               "northeast" : {
                  "lat" : 42.3666999,
                  "lng" : 44.8178449
               },
               "southwest" : {
                  "lat" : 35.808592,
                  "lng" : 25.5377
               }
            }
         },
         "place_id" : "ChIJcSZPllwVsBQRKl9iKtTb2UA",
         "types" : [ "country", "political" ]
      }
   ],
   "status" : "OK"
}
