{
   "plus_code" : {
      "compound_code" : "QW9R+9QP İzmit/Kocaeli, Turkey",
      "global_code" : "8GGFQW9R+9QP"
   },
   "results" : [
      {
         "address_components" : [
            {
               "long_name" : "4",
               "short_name" : "4",
               "types" : [ "street_number" ]
            },
            {
               "long_name" : "Bağdat Caddesi",
               "short_name" : "Bağdat Cd.",
               "types" : [ "route" ]
            },
            {
               "long_name" : "Kadıköy",
               "short_name" : "Kadıköy",
               "types" : [ "administrative_area_level_4", "political" ]
            },
            {
               "long_name" : "İzmit",
               "short_name" : "İzmit",
               "types" : [ "administrative_area_level_2", "political" ]
            },
            {
               "long_name" : "Kocaeli",
               "short_name" : "Kocaeli",
               "types" : [ "administrative_area_level_1", "political" ]
            },
            {
               "long_name" : "Turkey",
               "short_name" : "TR",
               "types" : [ "country", "political" ]
            },
            {
               "long_name" : "41050",
               "short_name" : "41050",
               "types" : [ "postal_code" ]
            }
         ],
         "formatted_address" : "Kadıköy, Bağdat Cd. No:4, 41050 İzmit/Kocaeli, Turkey",
         "geometry" : {
            "location" : {
               "lat" : 40.7683639,
               "lng" : 29.9420111
            },
            "location_type" : "ROOFTOP",
            "viewport" : {
               "northeast" : {
                  "lat" : 40.7697128802915,
                  "lng" : 29.9433600802915
               },
               "southwest" : {
                  "lat" : 40.7670149197085,
                  "lng" : 29.9406621197085
               }
            }
         },
         "place_id" : "ChIJHQPqHI9PyxQR0-zxJi-jPlA",
         "plus_code" : {
            "compound_code" : "QW9R+8R İzmit/Kocaeli, Turkey",
            "global_code" : "8GGFQW9R+8R"
         },
         "types" : [ "street_address" ]
      },
      {
         "address_components" : [
            {
               "long_name" : "4",
               "short_name" : "4",
               "types" : [ "street_number" ]
            },
            {
               "long_name" : "Bağdat Caddesi",
               "short_name" : "Bağdat Cd.",
               "types" : [ "route" ]
            },
            {
               "long_name" : "Kadıköy",
               "short_name" : "Kadıköy",
               "types" : [ "administrative_area_level_4", "political" ]
            },
            {
               "long_name" : "İzmit",
               "short_name" : "İzmit",
               "types" : [ "administrative_area_level_2", "political" ]
            },
            {
               "long_name" : "Kocaeli",
               "short_name" : "Kocaeli",
               "types" : [ "administrative_area_level_1", "political" ]
            },
            {
               "long_name" : "Turkey",
               "short_name" : "TR",
               "types" : [ "country", "political" ]
            },
            {
               "long_name" : "41050",
               "short_name" : "41050",
               "types" : [ "postal_code" ]
            }
         ],
         "formatted_address" : "Kadıköy, Bağdat Cd. No:4, 41050 İzmit/Kocaeli, Turkey",
         "geometry" : {
            "location" : {
               "lat" : 40.7683639,
               "lng" : 29.9420111
            },
            "location_type" : "ROOFTOP",
            "viewport" : {
               "northeast" : {
                  "lat" : 40.7697128802915,
                  "lng" : 29.9433600802915
               },
               "southwest" : {
                  "lat" : 40.7670149197085,
                  "lng" : 29.9406621197085
               }
            }
         },
         "place_id" : "ChIJyz33HI9PyxQRrm9XNzxH5s8",
         "plus_code" : {
            "compound_code" : "QW9R+8R İzmit/Kocaeli, Turkey",
            "global_code" : "8GGFQW9R+8R"
         },
         "types" : [ "establishment", "mosque", "place_of_worship", "point_of_interest" ]
      },
      {
         "address_components" : [
            {
               "long_name" : "4",
               "short_name" : "4",
               "types" : [ "street_number" ]
            },
            {
               "long_name" : "Bağdat Caddesi",
               "short_name" : "Bağdat Cd.",
               "types" : [ "route" ]
            },
            {
               "long_name" : "Kadıköy",
               "short_name" : "Kadıköy",
               "types" : [ "administrative_area_level_4", "political" ]
            },
            {
               "long_name" : "İzmit",
               "short_name" : "İzmit",
               "types" : [ "administrative_area_level_2", "political" ]
            },
            {
               "long_name" : "Kocaeli",
               "short_name" : "Kocaeli",
               "types" : [ "administrative_area_level_1", "political" ]
            },
            {
               "long_name" : "Turkey",
               "short_name" : "TR",
               "types" : [ "country", "political" ]
            },
            {
               "long_name" : "41050",
               "short_name" : "41050",
               "types" : [ "postal_code" ]
            }
         ],
         "formatted_address" : "Kadıköy, Bağdat Cd. No:4, 41050 İzmit/Kocaeli, Turkey",
         "geometry" : {
            "bounds" : {
               "northeast" : {
                  "lat" : 40.768446,
                  "lng" : 29.9422391
               },
               "southwest" : {
                  "lat" : 40.76815,
                  "lng" : 29.941799
               }
            },
            "location" : {
               "lat" : 40.768318,
               "lng" : 29.9420263
            },
            "location_type" : "ROOFTOP",
            "viewport" : {
               "northeast" : {
                  "lat" : 40.7696469802915,
                  "lng" : 29.9433680302915
               },
               "southwest" : {
                  "lat" : 40.7669490197085,
                  "lng" : 29.9406700697085
               }
            }
         },
         "place_id" : "ChIJyz33HI9PyxQRfTjAWRSE7vg",
         "types" : [ "premise" ]
      },
      {
         "address_components" : [
            {
               "long_name" : "4",
               "short_name" : "4",
               "types" : [ "street_number" ]
            },
            {
               "long_name" : "Bağdat Caddesi",
               "short_name" : "Bağdat Cd.",
               "types" : [ "route" ]
            },
            {
               "long_name" : "Kadıköy",
               "short_name" : "Kadıköy",
               "types" : [ "administrative_area_level_4", "political" ]
            },
            {
               "long_name" : "İzmit",
               "short_name" : "İzmit",
               "types" : [ "administrative_area_level_2", "political" ]
            },
            {
               "long_name" : "Kocaeli",
               "short_name" : "Kocaeli",
               "types" : [ "administrative_area_level_1", "political" ]
            },
            {
               "long_name" : "Turkey",
               "short_name" : "TR",
               "types" : [ "country", "political" ]
            },
            {
               "long_name" : "41050",
               "short_name" : "41050",
               "types" : [ "postal_code" ]
            }
         ],
         "formatted_address" : "Kadıköy, Bağdat Cd. No:4, 41050 İzmit/Kocaeli, Turkey",
         "geometry" : {
            "location" : {
               "lat" : 40.7685033,
               "lng" : 29.9419983
            },
            "location_type" : "RANGE_INTERPOLATED",
            "viewport" : {
               "northeast" : {
                  "lat" : 40.7698522802915,
                  "lng" : 29.9433472802915
               },
               "southwest" : {
                  "lat" : 40.7671543197085,
                  "lng" : 29.9406493197085
               }
            }
         },
         "place_id" : "EjlLYWTEsWvDtnksIEJhxJ9kYXQgQ2QuIE5vOjQsIDQxMDUwIMSwem1pdC9Lb2NhZWxpLCBUdXJrZXkiGhIYChQKEgkplD4Dj0_LFBEMrvN1ON9fShAE",
         "types" : [ "street_address" ]
      },
      {
         "address_components" : [
            {
               "long_name" : "4-6",
               "short_name" : "4-6",
               "types" : [ "street_number" ]
            },
            {
               "long_name" : "Bağdat Caddesi",
               "short_name" : "Bağdat Cd.",
               "types" : [ "route" ]
            },
            {
               "long_name" : "Kadıköy",
               "short_name" : "Kadıköy",
               "types" : [ "administrative_area_level_4", "political" ]
            },
            {
               "long_name" : "İzmit",
               "short_name" : "İzmit",
               "types" : [ "administrative_area_level_2", "political" ]
            },
            {
               "long_name" : "Kocaeli",
               "short_name" : "Kocaeli",
               "types" : [ "administrative_area_level_1", "political" ]
            },
            {
               "long_name" : "Turkey",
               "short_name" : "TR",
               "types" : [ "country", "political" ]
            },
            {
               "long_name" : "41050",
               "short_name" : "41050",
               "types" : [ "postal_code" ]
            }
         ],
         "formatted_address" : "Kadıköy, Bağdat Cd. 4-6, 41050 İzmit/Kocaeli, Turkey",
         "geometry" : {
            "bounds" : {
               "northeast" : {
                  "lat" : 40.7685178,
                  "lng" : 29.9422726
               },
               "southwest" : {
                  "lat" : 40.7684879,
                  "lng" : 29.9416913
               }
            },
            "location" : {
               "lat" : 40.7685025,
               "lng" : 29.941982
            },
            "location_type" : "GEOMETRIC_CENTER",
            "viewport" : {
               "northeast" : {
                  "lat" : 40.76985183029149,
                  "lng" : 29.94333093029149
               },
               "southwest" : {
                  "lat" : 40.76715386970849,
                  "lng" : 29.9406329697085
               }
            }
         },
         "place_id" : "ChIJKZQ-A49PyxQRDK7zdTjfX0o",
         "types" : [ "route" ]
      },
      {
         "address_components" : [
            {
               "long_name" : "QW9R+9Q",
               "short_name" : "QW9R+9Q",
               "types" : [ "plus_code" ]
            },
            {
               "long_name" : "İzmit",
               "short_name" : "İzmit",
               "types" : [ "administrative_area_level_2", "political" ]
            },
            {
               "long_name" : "Kocaeli",
               "short_name" : "Kocaeli",
               "types" : [ "administrative_area_level_1", "political" ]
            },
            {
               "long_name" : "Turkey",
               "short_name" : "TR",
               "types" : [ "country", "political" ]
            }
         ],
         "formatted_address" : "QW9R+9Q İzmit/Kocaeli, Turkey",
         "geometry" : {
            "bounds" : {
               "northeast" : {
                  "lat" : 40.7685,
                  "lng" : 29.942
               },
               "southwest" : {
                  "lat" : 40.768375,
                  "lng" : 29.941875
               }
            },
            "location" : {
               "lat" : 40.7684517,
               "lng" : 29.9419498
            },
            "location_type" : "GEOMETRIC_CENTER",
            "viewport" : {
               "northeast" : {
                  "lat" : 40.7697864802915,
                  "lng" : 29.9432864802915
               },
               "southwest" : {
                  "lat" : 40.7670885197085,
                  "lng" : 29.9405885197085
               }
            }
         },
         "place_id" : "GhIJHgcUoFxiREARR3lBnyPxPUA",
         "plus_code" : {
            "compound_code" : "QW9R+9Q İzmit/Kocaeli, Turkey",
            "global_code" : "8GGFQW9R+9Q"
         },
         "types" : [ "plus_code" ]
      },
      {
         "address_components" : [
            {
               "long_name" : "Kadıköy",
               "short_name" : "Kadıköy",
               "types" : [ "administrative_area_level_4", "political" ]
            },
            {
               "long_name" : "İzmit",
               "short_name" : "İzmit",
               "types" : [ "administrative_area_level_2", "political" ]
            },
            {
               "long_name" : "Kocaeli",
               "short_name" : "Kocaeli",
               "types" : [ "administrative_area_level_1", "political" ]
            },
            {
               "long_name" : "Turkey",
               "short_name" : "TR",
               "types" : [ "country", "political" ]
            },
            {
               "long_name" : "41050",
               "short_name" : "41050",
               "types" : [ "postal_code" ]
            }
         ],
         "formatted_address" : "Kadıköy, 41050 İzmit/Kocaeli, Turkey",
         "geometry" : {
            "bounds" : {
               "northeast" : {
                  "lat" : 40.7718261,
                  "lng" : 29.950549
               },
               "southwest" : {
                  "lat" : 40.764459,
                  "lng" : 29.940343
               }
            },
            "location" : {
               "lat" : 40.7665482,
               "lng" : 29.9465892
            },
            "location_type" : "APPROXIMATE",
            "viewport" : {
               "northeast" : {
                  "lat" : 40.7718261,
                  "lng" : 29.950549
               },
               "southwest" : {
                  "lat" : 40.764459,
                  "lng" : 29.940343
               }
            }
         },
         "place_id" : "ChIJA_72f45PyxQRSmc4FaNam_8",
         "types" : [ "administrative_area_level_4", "political" ]
      },
      {
         "address_components" : [
            {
               "long_name" : "41050",
               "short_name" : "41050",
               "types" : [ "postal_code" ]
            },
            {
               "long_name" : "İzmit",
               "short_name" : "İzmit",
               "types" : [ "administrative_area_level_2", "political" ]
            },
            {
               "long_name" : "Kocaeli",
               "short_name" : "Kocaeli",
               "types" : [ "administrative_area_level_1", "political" ]
            },
            {
               "long_name" : "Turkey",
               "short_name" : "TR",
               "types" : [ "country", "political" ]
            }
         ],
         "formatted_address" : "41050 İzmit/Kocaeli, Turkey",
         "geometry" : {
            "bounds" : {
               "northeast" : {
                  "lat" : 40.7718261,
                  "lng" : 29.950549
               },
               "southwest" : {
                  "lat" : 40.764428,
                  "lng" : 29.940181
               }
            },
            "location" : {
               "lat" : 40.7665482,
               "lng" : 29.9465892
            },
            "location_type" : "APPROXIMATE",
            "viewport" : {
               "northeast" : {
                  "lat" : 40.7718261,
                  "lng" : 29.950549
               },
               "southwest" : {
                  "lat" : 40.764428,
                  "lng" : 29.940181
               }
            }
         },
         "place_id" : "ChIJCfTn1I1PyxQRQwL9fu3Lmpw",
         "types" : [ "postal_code" ]
      },
      {
         "address_components" : [
            {
               "long_name" : "İzmit",
               "short_name" : "İzmit",
               "types" : [ "locality", "political" ]
            },
            {
               "long_name" : "İzmit",
               "short_name" : "İzmit",
               "types" : [ "administrative_area_level_2", "political" ]
            },
            {
               "long_name" : "Kocaeli",
               "short_name" : "Kocaeli",
               "types" : [ "administrative_area_level_1", "political" ]
            },
            {
               "long_name" : "Turkey",
               "short_name" : "TR",
               "types" : [ "country", "political" ]
            }
         ],
         "formatted_address" : "İzmit, Kocaeli, Turkey",
         "geometry" : {
            "bounds" : {
               "northeast" : {
                  "lat" : 40.805401,
                  "lng" : 30.014834
               },
               "southwest" : {
                  "lat" : 40.736827,
                  "lng" : 29.8541681
               }
            },
            "location" : {
               "lat" : 40.7654408,
               "lng" : 29.9408089
            },
            "location_type" : "APPROXIMATE",
            "viewport" : {
               "northeast" : {
                  "lat" : 40.805401,
                  "lng" : 30.014834
               },
               "southwest" : {
                  "lat" : 40.736827,
                  "lng" : 29.8541681
               }
            }
         },
         "place_id" : "ChIJnftLZGZPyxQRuX5rWOcOaYI",
         "types" : [ "locality", "political" ]
      },
      {
         "address_components" : [
            {
               "long_name" : "İzmit",
               "short_name" : "İzmit",
               "types" : [ "administrative_area_level_2", "political" ]
            },
            {
               "long_name" : "Kocaeli",
               "short_name" : "Kocaeli",
               "types" : [ "administrative_area_level_1", "political" ]
            },
            {
               "long_name" : "Turkey",
               "short_name" : "TR",
               "types" : [ "country", "political" ]
            }
         ],
         "formatted_address" : "İzmit/Kocaeli, Turkey",
         "geometry" : {
            "bounds" : {
               "northeast" : {
                  "lat" : 40.971557,
                  "lng" : 30.2639339
               },
               "southwest" : {
                  "lat" : 40.720553,
                  "lng" : 29.8541681
               }
            },
            "location" : {
               "lat" : 40.8506635,
               "lng" : 30.0202964
            },
            "location_type" : "APPROXIMATE",
            "viewport" : {
               "northeast" : {
                  "lat" : 40.971557,
                  "lng" : 30.2639339
               },
               "southwest" : {
                  "lat" : 40.720553,
                  "lng" : 29.8541681
               }
            }
         },
         "place_id" : "ChIJL2DfPLZQyxQRitx6sY9PIGU",
         "types" : [ "administrative_area_level_2", "political" ]
      },
      {
         "address_components" : [
            {
               "long_name" : "Kocaeli",
               "short_name" : "Kocaeli",
               "types" : [ "administrative_area_level_1", "political" ]
            },
            {
               "long_name" : "Turkey",
               "short_name" : "TR",
               "types" : [ "country", "political" ]
            }
         ],
         "formatted_address" : "Kocaeli, Turkey",
         "geometry" : {
            "bounds" : {
               "northeast" : {
                  "lat" : 41.20976,
                  "lng" : 30.367743
               },
               "southwest" : {
                  "lat" : 40.524151,
                  "lng" : 29.3331261
               }
            },
            "location" : {
               "lat" : 40.8532704,
               "lng" : 29.8815203
            },
            "location_type" : "APPROXIMATE",
            "viewport" : {
               "northeast" : {
                  "lat" : 41.20976,
                  "lng" : 30.367743
               },
               "southwest" : {
                  "lat" : 40.524151,
                  "lng" : 29.3331261
               }
            }
         },
         "place_id" : "ChIJQ8zKb5QgyxQRWdhW642zLKg",
         "types" : [ "administrative_area_level_1", "political" ]
      },
      {
         "address_components" : [
            {
               "long_name" : "Turkey",
               "short_name" : "TR",
               "types" : [ "country", "political" ]
            }
         ],
         "formatted_address" : "Turkey",
         "geometry" : {
            "bounds" : {
               "northeast" : {
                  "lat" : 42.3666999,
                  "lng" : 44.8178449
               },
               "southwest" : {
                  "lat" : 35.808592,
                  "lng" : 25.5377
               }
            },
            "location" : {
               "lat" : 38.963745,
               "lng" : 35.243322
            },
            "location_type" : "APPROXIMATE",
            "viewport" : {
               "northeast" : {
                  "lat" : 42.3666999,
                  "lng" : 44.8178449
               },
               "southwest" : {
                  "lat" : 35.808592,
                  "lng" : 25.5377
               }
            }
         },
         "place_id" : "ChIJcSZPllwVsBQRKl9iKtTb2UA",
         "types" : [ "country", "political" ]
      }
   ],
   "status" : "OK"
}
