{
   "plus_code" : {
      "compound_code" : "QW9Q+43V İzmit/Kocaeli, Turkey",
      "global_code" : "8GGFQW9Q+43V"
   },
   "results" : [
      {
         "address_components" : [
            {
               "long_name" : "4",
               "short_name" : "4",
               "types" : [ "street_number" ]
            },
            {
               "long_name" : "Devlet Hastanesi Sokak",
               "short_name" : "Devlet Hst. Sk.",
               "types" : [ "route" ]
            },
            {
               "long_name" : "Cedit",
               "short_name" : "Cedit",
               "types" : [ "administrative_area_level_4", "political" ]
            },
            {
               "long_name" : "İzmit",
               "short_name" : "İzmit",
               "types" : [ "administrative_area_level_2", "political" ]
            },
            {
               "long_name" : "Kocaeli",
               "short_name" : "Kocaeli",
               "types" : [ "administrative_area_level_1", "political" ]
            },
            {
               "long_name" : "Turkey",
               "short_name" : "TR",
               "types" : [ "country", "political" ]
            },
            {
               "long_name" : "41300",
               "short_name" : "41300",
               "types" : [ "postal_code" ]
            }
         ],
         "formatted_address" : "Cedit, Devlet Hst. Sk. No:4, 41300 İzmit/Kocaeli, Turkey",
         "geometry" : {
            "location" : {
               "lat" : 40.7677456,
               "lng" : 29.9374292
            },
            "location_type" : "ROOFTOP",
            "viewport" : {
               "northeast" : {
                  "lat" : 40.76909458029149,
                  "lng" : 29.9387781802915
               },
               "southwest" : {
                  "lat" : 40.7663966197085,
                  "lng" : 29.9360802197085
               }
            }
         },
         "place_id" : "ChIJO5wdcYZPyxQRZ-eFVbNPnCM",
         "plus_code" : {
            "compound_code" : "QW9P+3X İzmit/Kocaeli, Turkey",
            "global_code" : "8GGFQW9P+3X"
         },
         "types" : [ "street_address" ]
      },
      {
         "address_components" : [
            {
               "long_name" : "8",
               "short_name" : "8",
               "types" : [ "street_number" ]
            },
            {
               "long_name" : "Devlet Hastanesi Sokak",
               "short_name" : "Devlet Hst. Sk.",
               "types" : [ "route" ]
            },
            {
               "long_name" : "Cedit",
               "short_name" : "Cedit",
               "types" : [ "administrative_area_level_4", "political" ]
            },
            {
               "long_name" : "İzmit",
               "short_name" : "İzmit",
               "types" : [ "administrative_area_level_2", "political" ]
            },
            {
               "long_name" : "Kocaeli",
               "short_name" : "Kocaeli",
               "types" : [ "administrative_area_level_1", "political" ]
            },
            {
               "long_name" : "Turkey",
               "short_name" : "TR",
               "types" : [ "country", "political" ]
            },
            {
               "long_name" : "41300",
               "short_name" : "41300",
               "types" : [ "postal_code" ]
            }
         ],
         "formatted_address" : "Cedit, Devlet Hst. Sk. No:8, 41300 İzmit/Kocaeli, Turkey",
         "geometry" : {
            "bounds" : {
               "northeast" : {
                  "lat" : 40.7677821,
                  "lng" : 29.938032
               },
               "southwest" : {
                  "lat" : 40.7672523,
                  "lng" : 29.9374883
               }
            },
            "location" : {
               "lat" : 40.7675268,
               "lng" : 29.9378248
            },
            "location_type" : "ROOFTOP",
            "viewport" : {
               "northeast" : {
                  "lat" : 40.7688661802915,
                  "lng" : 29.9391091302915
               },
               "southwest" : {
                  "lat" : 40.7661682197085,
                  "lng" : 29.9364111697085
               }
            }
         },
         "place_id" : "ChIJEyYPc4ZPyxQRMerKG8tK0lA",
         "types" : [ "premise" ]
      },
      {
         "address_components" : [
            {
               "long_name" : "53",
               "short_name" : "53",
               "types" : [ "street_number" ]
            },
            {
               "long_name" : "Turan Güneş Caddesi",
               "short_name" : "Turan Güneş Cd.",
               "types" : [ "route" ]
            },
            {
               "long_name" : "Cedit",
               "short_name" : "Cedit",
               "types" : [ "administrative_area_level_4", "political" ]
            },
            {
               "long_name" : "İzmit",
               "short_name" : "İzmit",
               "types" : [ "administrative_area_level_2", "political" ]
            },
            {
               "long_name" : "Kocaeli",
               "short_name" : "Kocaeli",
               "types" : [ "administrative_area_level_1", "political" ]
            },
            {
               "long_name" : "Turkey",
               "short_name" : "TR",
               "types" : [ "country", "political" ]
            },
            {
               "long_name" : "41300",
               "short_name" : "41300",
               "types" : [ "postal_code" ]
            }
         ],
         "formatted_address" : "Cedit, Turan Güneş Cd. No:53, 41300 İzmit/Kocaeli, Turkey",
         "geometry" : {
            "location" : {
               "lat" : 40.7678214,
               "lng" : 29.9374913
            },
            "location_type" : "RANGE_INTERPOLATED",
            "viewport" : {
               "northeast" : {
                  "lat" : 40.7691703802915,
                  "lng" : 29.9388402802915
               },
               "southwest" : {
                  "lat" : 40.7664724197085,
                  "lng" : 29.9361423197085
               }
            }
         },
         "place_id" : "EjxDZWRpdCwgVHVyYW4gR8O8bmXFnyBDZC4gTm86NTMsIDQxMzAwIMSwem1pdC9Lb2NhZWxpLCBUdXJrZXkiGhIYChQKEgkLKO_fhU_LFBE5EQgFWw4CoRA1",
         "types" : [ "street_address" ]
      },
      {
         "address_components" : [
            {
               "long_name" : "34-38",
               "short_name" : "34-38",
               "types" : [ "street_number" ]
            },
            {
               "long_name" : "Turan Güneş Caddesi",
               "short_name" : "Turan Güneş Cd.",
               "types" : [ "route" ]
            },
            {
               "long_name" : "Cedit",
               "short_name" : "Cedit",
               "types" : [ "administrative_area_level_4", "political" ]
            },
            {
               "long_name" : "İzmit",
               "short_name" : "İzmit",
               "types" : [ "administrative_area_level_2", "political" ]
            },
            {
               "long_name" : "Kocaeli",
               "short_name" : "Kocaeli",
               "types" : [ "administrative_area_level_1", "political" ]
            },
            {
               "long_name" : "Turkey",
               "short_name" : "TR",
               "types" : [ "country", "political" ]
            },
            {
               "long_name" : "41300",
               "short_name" : "41300",
               "types" : [ "postal_code" ]
            }
         ],
         "formatted_address" : "Cedit, Turan Güneş Cd. 34-38, 41300 İzmit/Kocaeli, Turkey",
         "geometry" : {
            "bounds" : {
               "northeast" : {
                  "lat" : 40.7680616,
                  "lng" : 29.93833029999999
               },
               "southwest" : {
                  "lat" : 40.7678214,
                  "lng" : 29.9374913
               }
            },
            "location" : {
               "lat" : 40.7679415,
               "lng" : 29.9379108
            },
            "location_type" : "GEOMETRIC_CENTER",
            "viewport" : {
               "northeast" : {
                  "lat" : 40.7692904802915,
                  "lng" : 29.9392597802915
               },
               "southwest" : {
                  "lat" : 40.7665925197085,
                  "lng" : 29.9365618197085
               }
            }
         },
         "place_id" : "ChIJCyjv34VPyxQROBEIBVsOAqE",
         "types" : [ "route" ]
      },
      {
         "address_components" : [
            {
               "long_name" : "QW9Q+43",
               "short_name" : "QW9Q+43",
               "types" : [ "plus_code" ]
            },
            {
               "long_name" : "İzmit",
               "short_name" : "İzmit",
               "types" : [ "administrative_area_level_2", "political" ]
            },
            {
               "long_name" : "Kocaeli",
               "short_name" : "Kocaeli",
               "types" : [ "administrative_area_level_1", "political" ]
            },
            {
               "long_name" : "Turkey",
               "short_name" : "TR",
               "types" : [ "country", "political" ]
            }
         ],
         "formatted_address" : "QW9Q+43 İzmit/Kocaeli, Turkey",
         "geometry" : {
            "bounds" : {
               "northeast" : {
                  "lat" : 40.767875,
                  "lng" : 29.93775
               },
               "southwest" : {
                  "lat" : 40.76775,
                  "lng" : 29.937625
               }
            },
            "location" : {
               "lat" : 40.7678667,
               "lng" : 29.9376583
            },
            "location_type" : "GEOMETRIC_CENTER",
            "viewport" : {
               "northeast" : {
                  "lat" : 40.76916148029149,
                  "lng" : 29.9390364802915
               },
               "southwest" : {
                  "lat" : 40.7664635197085,
                  "lng" : 29.9363385197085
               }
            }
         },
         "place_id" : "GhIJ_he-dEliREARrFLVXwrwPUA",
         "plus_code" : {
            "compound_code" : "QW9Q+43 İzmit/Kocaeli, Turkey",
            "global_code" : "8GGFQW9Q+43"
         },
         "types" : [ "plus_code" ]
      },
      {
         "address_components" : [
            {
               "long_name" : "41300",
               "short_name" : "41300",
               "types" : [ "postal_code" ]
            },
            {
               "long_name" : "Cedit",
               "short_name" : "Cedit",
               "types" : [ "administrative_area_level_4", "political" ]
            },
            {
               "long_name" : "İzmit",
               "short_name" : "İzmit",
               "types" : [ "administrative_area_level_2", "political" ]
            },
            {
               "long_name" : "Kocaeli",
               "short_name" : "Kocaeli",
               "types" : [ "administrative_area_level_1", "political" ]
            },
            {
               "long_name" : "Turkey",
               "short_name" : "TR",
               "types" : [ "country", "political" ]
            }
         ],
         "formatted_address" : "Cedit, 41300 İzmit/Kocaeli, Turkey",
         "geometry" : {
            "bounds" : {
               "northeast" : {
                  "lat" : 40.773598,
                  "lng" : 29.9407609
               },
               "southwest" : {
                  "lat" : 40.764453,
                  "lng" : 29.932455
               }
            },
            "location" : {
               "lat" : 40.7690192,
               "lng" : 29.9379151
            },
            "location_type" : "APPROXIMATE",
            "viewport" : {
               "northeast" : {
                  "lat" : 40.773598,
                  "lng" : 29.9407609
               },
               "southwest" : {
                  "lat" : 40.764453,
                  "lng" : 29.932455
               }
            }
         },
         "place_id" : "ChIJWb3yzIVPyxQRro8SxMjuEKQ",
         "types" : [ "postal_code" ]
      },
      {
         "address_components" : [
            {
               "long_name" : "Cedit",
               "short_name" : "Cedit",
               "types" : [ "administrative_area_level_4", "political" ]
            },
            {
               "long_name" : "İzmit",
               "short_name" : "İzmit",
               "types" : [ "administrative_area_level_2", "political" ]
            },
            {
               "long_name" : "Kocaeli",
               "short_name" : "Kocaeli",
               "types" : [ "administrative_area_level_1", "political" ]
            },
            {
               "long_name" : "Turkey",
               "short_name" : "TR",
               "types" : [ "country", "political" ]
            }
         ],
         "formatted_address" : "Cedit, İzmit/Kocaeli, Turkey",
         "geometry" : {
            "bounds" : {
               "northeast" : {
                  "lat" : 40.773598,
                  "lng" : 29.942349
               },
               "southwest" : {
                  "lat" : 40.764453,
                  "lng" : 29.932455
               }
            },
            "location" : {
               "lat" : 40.7690192,
               "lng" : 29.9379151
            },
            "location_type" : "APPROXIMATE",
            "viewport" : {
               "northeast" : {
                  "lat" : 40.773598,
                  "lng" : 29.942349
               },
               "southwest" : {
                  "lat" : 40.764453,
                  "lng" : 29.932455
               }
            }
         },
         "place_id" : "ChIJIZ8AzYVPyxQRSDAbAY4BRlk",
         "types" : [ "administrative_area_level_4", "political" ]
      },
      {
         "address_components" : [
            {
               "long_name" : "İzmit",
               "short_name" : "İzmit",
               "types" : [ "locality", "political" ]
            },
            {
               "long_name" : "İzmit",
               "short_name" : "İzmit",
               "types" : [ "administrative_area_level_2", "political" ]
            },
            {
               "long_name" : "Kocaeli",
               "short_name" : "Kocaeli",
               "types" : [ "administrative_area_level_1", "political" ]
            },
            {
               "long_name" : "Turkey",
               "short_name" : "TR",
               "types" : [ "country", "political" ]
            }
         ],
         "formatted_address" : "İzmit, Kocaeli, Turkey",
         "geometry" : {
            "bounds" : {
               "northeast" : {
                  "lat" : 40.805401,
                  "lng" : 30.014834
               },
               "southwest" : {
                  "lat" : 40.736827,
                  "lng" : 29.8541681
               }
            },
            "location" : {
               "lat" : 40.7654408,
               "lng" : 29.9408089
            },
            "location_type" : "APPROXIMATE",
            "viewport" : {
               "northeast" : {
                  "lat" : 40.805401,
                  "lng" : 30.014834
               },
               "southwest" : {
                  "lat" : 40.736827,
                  "lng" : 29.8541681
               }
            }
         },
         "place_id" : "ChIJnftLZGZPyxQRuX5rWOcOaYI",
         "types" : [ "locality", "political" ]
      },
      {
         "address_components" : [
            {
               "long_name" : "İzmit",
               "short_name" : "İzmit",
               "types" : [ "administrative_area_level_2", "political" ]
            },
            {
               "long_name" : "Kocaeli",
               "short_name" : "Kocaeli",
               "types" : [ "administrative_area_level_1", "political" ]
            },
            {
               "long_name" : "Turkey",
               "short_name" : "TR",
               "types" : [ "country", "political" ]
            }
         ],
         "formatted_address" : "İzmit/Kocaeli, Turkey",
         "geometry" : {
            "bounds" : {
               "northeast" : {
                  "lat" : 40.971557,
                  "lng" : 30.2639339
               },
               "southwest" : {
                  "lat" : 40.720553,
                  "lng" : 29.8541681
               }
            },
            "location" : {
               "lat" : 40.8506635,
               "lng" : 30.0202964
            },
            "location_type" : "APPROXIMATE",
            "viewport" : {
               "northeast" : {
                  "lat" : 40.971557,
                  "lng" : 30.2639339
               },
               "southwest" : {
                  "lat" : 40.720553,
                  "lng" : 29.8541681
               }
            }
         },
         "place_id" : "ChIJL2DfPLZQyxQRitx6sY9PIGU",
         "types" : [ "administrative_area_level_2", "political" ]
      },
      {
         "address_components" : [
            {
               "long_name" : "Kocaeli",
               "short_name" : "Kocaeli",
               "types" : [ "administrative_area_level_1", "political" ]
            },
            {
               "long_name" : "Turkey",
               "short_name" : "TR",
               "types" : [ "country", "political" ]
            }
         ],
         "formatted_address" : "Kocaeli, Turkey",
         "geometry" : {
            "bounds" : {
               "northeast" : {
                  "lat" : 41.20976,
                  "lng" : 30.367743
               },
               "southwest" : {
                  "lat" : 40.524151,
                  "lng" : 29.3331261
               }
            },
            "location" : {
               "lat" : 40.8532704,
               "lng" : 29.8815203
            },
            "location_type" : "APPROXIMATE",
            "viewport" : {
               "northeast" : {
                  "lat" : 41.20976,
                  "lng" : 30.367743
               },
               "southwest" : {
                  "lat" : 40.524151,
                  "lng" : 29.3331261
               }
            }
         },
         "place_id" : "ChIJQ8zKb5QgyxQRWdhW642zLKg",
         "types" : [ "administrative_area_level_1", "political" ]
      },
      {
         "address_components" : [
            {
               "long_name" : "Turkey",
               "short_name" : "TR",
               "types" : [ "country", "political" ]
            }
         ],
         "formatted_address" : "Turkey",
         "geometry" : {
            "bounds" : {
               "northeast" : {
                  "lat" : 42.3666999,
                  "lng" : 44.8178449
               },
               "southwest" : {
                  "lat" : 35.808592,
                  "lng" : 25.5377
               }
            },
            "location" : {
               "lat" : 38.963745,
               "lng" : 35.243322
            },
            "location_type" : "APPROXIMATE",
            "viewport" : {
               "northeast" : {
                  "lat" : 42.3666999,
                  "lng" : 44.8178449
               },
               "southwest" : {
                  "lat" : 35.808592,
                  "lng" : 25.5377
               }
            }
         },
         "place_id" : "ChIJcSZPllwVsBQRKl9iKtTb2UA",
         "types" : [ "country", "political" ]
      }
   ],
   "status" : "OK"
}
