{
   "plus_code" : {
      "compound_code" : "QX72+C8 İzmit/Kocaeli, Turkey",
      "global_code" : "8GGFQX72+C8"
   },
   "results" : [
      {
         "address_components" : [
            {
               "long_name" : "30",
               "short_name" : "30",
               "types" : [ "street_number" ]
            },
            {
               "long_name" : "İzzet Uzuner Sokak",
               "short_name" : "İzzet Uzuner Sk.",
               "types" : [ "route" ]
            },
            {
               "long_name" : "Körfez",
               "short_name" : "Körfez",
               "types" : [ "administrative_area_level_4", "political" ]
            },
            {
               "long_name" : "İzmit",
               "short_name" : "İzmit",
               "types" : [ "administrative_area_level_2", "political" ]
            },
            {
               "long_name" : "Kocaeli",
               "short_name" : "Kocaeli",
               "types" : [ "administrative_area_level_1", "political" ]
            },
            {
               "long_name" : "Turkey",
               "short_name" : "TR",
               "types" : [ "country", "political" ]
            },
            {
               "long_name" : "41040",
               "short_name" : "41040",
               "types" : [ "postal_code" ]
            }
         ],
         "formatted_address" : "Körfez, İzzet Uzuner Sk. No:30, 41040 İzmit/Kocaeli, Turkey",
         "geometry" : {
            "location" : {
               "lat" : 40.7635429,
               "lng" : 29.9509657
            },
            "location_type" : "ROOFTOP",
            "viewport" : {
               "northeast" : {
                  "lat" : 40.7648918802915,
                  "lng" : 29.9523146802915
               },
               "southwest" : {
                  "lat" : 40.7621939197085,
                  "lng" : 29.9496167197085
               }
            }
         },
         "place_id" : "ChIJO2uvsvRPyxQRJX3h0j9cD28",
         "plus_code" : {
            "compound_code" : "QX72+C9 İzmit/Kocaeli, Turkey",
            "global_code" : "8GGFQX72+C9"
         },
         "types" : [ "street_address" ]
      },
      {
         "address_components" : [
            {
               "long_name" : "27",
               "short_name" : "27",
               "types" : [ "street_number" ]
            },
            {
               "long_name" : "İzzet Uzuner Sokak",
               "short_name" : "İzzet Uzuner Sk.",
               "types" : [ "route" ]
            },
            {
               "long_name" : "Körfez",
               "short_name" : "Körfez",
               "types" : [ "administrative_area_level_4", "political" ]
            },
            {
               "long_name" : "İzmit",
               "short_name" : "İzmit",
               "types" : [ "administrative_area_level_2", "political" ]
            },
            {
               "long_name" : "Kocaeli",
               "short_name" : "Kocaeli",
               "types" : [ "administrative_area_level_1", "political" ]
            },
            {
               "long_name" : "Turkey",
               "short_name" : "TR",
               "types" : [ "country", "political" ]
            },
            {
               "long_name" : "41040",
               "short_name" : "41040",
               "types" : [ "postal_code" ]
            }
         ],
         "formatted_address" : "Körfez, İzzet Uzuner Sk. No:27, 41040 İzmit/Kocaeli, Turkey",
         "geometry" : {
            "location" : {
               "lat" : 40.7632969,
               "lng" : 29.9509644
            },
            "location_type" : "RANGE_INTERPOLATED",
            "viewport" : {
               "northeast" : {
                  "lat" : 40.7646458802915,
                  "lng" : 29.9523133802915
               },
               "southwest" : {
                  "lat" : 40.7619479197085,
                  "lng" : 29.9496154197085
               }
            }
         },
         "place_id" : "Ej5Lw7ZyZmV6LCDEsHp6ZXQgVXp1bmVyIFNrLiBObzoyNywgNDEwNDAgxLB6bWl0L0tvY2FlbGksIFR1cmtleSIaEhgKFAoSCS1G4Lz0T8sUERFY6jaqipXGEBs",
         "types" : [ "street_address" ]
      },
      {
         "address_components" : [
            {
               "long_name" : "QX72+C8",
               "short_name" : "QX72+C8",
               "types" : [ "plus_code" ]
            },
            {
               "long_name" : "İzmit",
               "short_name" : "İzmit",
               "types" : [ "administrative_area_level_2", "political" ]
            },
            {
               "long_name" : "Kocaeli",
               "short_name" : "Kocaeli",
               "types" : [ "administrative_area_level_1", "political" ]
            },
            {
               "long_name" : "Turkey",
               "short_name" : "TR",
               "types" : [ "country", "political" ]
            }
         ],
         "formatted_address" : "QX72+C8 İzmit/Kocaeli, Turkey",
         "geometry" : {
            "bounds" : {
               "northeast" : {
                  "lat" : 40.763625,
                  "lng" : 29.950875
               },
               "southwest" : {
                  "lat" : 40.7635,
                  "lng" : 29.95075
               }
            },
            "location" : {
               "lat" : 40.7635112,
               "lng" : 29.9507904
            },
            "location_type" : "GEOMETRIC_CENTER",
            "viewport" : {
               "northeast" : {
                  "lat" : 40.7649114802915,
                  "lng" : 29.9521614802915
               },
               "southwest" : {
                  "lat" : 40.7622135197085,
                  "lng" : 29.9494635197085
               }
            }
         },
         "place_id" : "GhIJmhApvLphREARy1np_2bzPUA",
         "plus_code" : {
            "compound_code" : "QX72+C8 İzmit/Kocaeli, Turkey",
            "global_code" : "8GGFQX72+C8"
         },
         "types" : [ "plus_code" ]
      },
      {
         "address_components" : [
            {
               "long_name" : "2-32",
               "short_name" : "2-32",
               "types" : [ "street_number" ]
            },
            {
               "long_name" : "İzzet Uzuner Sokak",
               "short_name" : "İzzet Uzuner Sk.",
               "types" : [ "route" ]
            },
            {
               "long_name" : "Körfez",
               "short_name" : "Körfez",
               "types" : [ "administrative_area_level_4", "political" ]
            },
            {
               "long_name" : "İzmit",
               "short_name" : "İzmit",
               "types" : [ "administrative_area_level_2", "political" ]
            },
            {
               "long_name" : "Kocaeli",
               "short_name" : "Kocaeli",
               "types" : [ "administrative_area_level_1", "political" ]
            },
            {
               "long_name" : "Turkey",
               "short_name" : "TR",
               "types" : [ "country", "political" ]
            },
            {
               "long_name" : "41040",
               "short_name" : "41040",
               "types" : [ "postal_code" ]
            }
         ],
         "formatted_address" : "Körfez, İzzet Uzuner Sk. 2-32, 41040 İzmit/Kocaeli, Turkey",
         "geometry" : {
            "bounds" : {
               "northeast" : {
                  "lat" : 40.7633219,
                  "lng" : 29.9535562
               },
               "southwest" : {
                  "lat" : 40.7629647,
                  "lng" : 29.950769
               }
            },
            "location" : {
               "lat" : 40.7631433,
               "lng" : 29.9521626
            },
            "location_type" : "GEOMETRIC_CENTER",
            "viewport" : {
               "northeast" : {
                  "lat" : 40.7644922802915,
                  "lng" : 29.9535562
               },
               "southwest" : {
                  "lat" : 40.7617943197085,
                  "lng" : 29.950769
               }
            }
         },
         "place_id" : "ChIJLUbgvPRPyxQREFjqNqqKlcY",
         "types" : [ "route" ]
      },
      {
         "address_components" : [
            {
               "long_name" : "41040",
               "short_name" : "41040",
               "types" : [ "postal_code" ]
            },
            {
               "long_name" : "İzmit",
               "short_name" : "İzmit",
               "types" : [ "administrative_area_level_2", "political" ]
            },
            {
               "long_name" : "Kocaeli",
               "short_name" : "Kocaeli",
               "types" : [ "administrative_area_level_1", "political" ]
            },
            {
               "long_name" : "Turkey",
               "short_name" : "TR",
               "types" : [ "country", "political" ]
            }
         ],
         "formatted_address" : "41040 İzmit/Kocaeli, Turkey",
         "geometry" : {
            "bounds" : {
               "northeast" : {
                  "lat" : 40.7653761,
                  "lng" : 29.9631269
               },
               "southwest" : {
                  "lat" : 40.757143,
                  "lng" : 29.9383831
               }
            },
            "location" : {
               "lat" : 40.7610979,
               "lng" : 29.9494804
            },
            "location_type" : "APPROXIMATE",
            "viewport" : {
               "northeast" : {
                  "lat" : 40.7653761,
                  "lng" : 29.9631269
               },
               "southwest" : {
                  "lat" : 40.757143,
                  "lng" : 29.9383831
               }
            }
         },
         "place_id" : "ChIJO3l2zYpPyxQR7-rF8BAGPHU",
         "types" : [ "postal_code" ]
      },
      {
         "address_components" : [
            {
               "long_name" : "Körfez",
               "short_name" : "Körfez",
               "types" : [ "administrative_area_level_4", "political" ]
            },
            {
               "long_name" : "İzmit",
               "short_name" : "İzmit",
               "types" : [ "administrative_area_level_2", "political" ]
            },
            {
               "long_name" : "Kocaeli",
               "short_name" : "Kocaeli",
               "types" : [ "administrative_area_level_1", "political" ]
            },
            {
               "long_name" : "Turkey",
               "short_name" : "TR",
               "types" : [ "country", "political" ]
            },
            {
               "long_name" : "41040",
               "short_name" : "41040",
               "types" : [ "postal_code" ]
            }
         ],
         "formatted_address" : "Körfez, 41040 İzmit/Kocaeli, Turkey",
         "geometry" : {
            "bounds" : {
               "northeast" : {
                  "lat" : 40.765456,
                  "lng" : 29.9631269
               },
               "southwest" : {
                  "lat" : 40.75719,
                  "lng" : 29.9383831
               }
            },
            "location" : {
               "lat" : 40.7610979,
               "lng" : 29.9494804
            },
            "location_type" : "APPROXIMATE",
            "viewport" : {
               "northeast" : {
                  "lat" : 40.765456,
                  "lng" : 29.9631269
               },
               "southwest" : {
                  "lat" : 40.75719,
                  "lng" : 29.9383831
               }
            }
         },
         "place_id" : "ChIJp3VlAbNayxQRYCN59Wi7Ukg",
         "types" : [ "administrative_area_level_4", "political" ]
      },
      {
         "address_components" : [
            {
               "long_name" : "İzmit",
               "short_name" : "İzmit",
               "types" : [ "locality", "political" ]
            },
            {
               "long_name" : "İzmit",
               "short_name" : "İzmit",
               "types" : [ "administrative_area_level_2", "political" ]
            },
            {
               "long_name" : "Kocaeli",
               "short_name" : "Kocaeli",
               "types" : [ "administrative_area_level_1", "political" ]
            },
            {
               "long_name" : "Turkey",
               "short_name" : "TR",
               "types" : [ "country", "political" ]
            }
         ],
         "formatted_address" : "İzmit, Kocaeli, Turkey",
         "geometry" : {
            "bounds" : {
               "northeast" : {
                  "lat" : 40.805401,
                  "lng" : 30.014834
               },
               "southwest" : {
                  "lat" : 40.736827,
                  "lng" : 29.8541681
               }
            },
            "location" : {
               "lat" : 40.7654408,
               "lng" : 29.9408089
            },
            "location_type" : "APPROXIMATE",
            "viewport" : {
               "northeast" : {
                  "lat" : 40.805401,
                  "lng" : 30.014834
               },
               "southwest" : {
                  "lat" : 40.736827,
                  "lng" : 29.8541681
               }
            }
         },
         "place_id" : "ChIJnftLZGZPyxQRuX5rWOcOaYI",
         "types" : [ "locality", "political" ]
      },
      {
         "address_components" : [
            {
               "long_name" : "İzmit",
               "short_name" : "İzmit",
               "types" : [ "administrative_area_level_2", "political" ]
            },
            {
               "long_name" : "Kocaeli",
               "short_name" : "Kocaeli",
               "types" : [ "administrative_area_level_1", "political" ]
            },
            {
               "long_name" : "Turkey",
               "short_name" : "TR",
               "types" : [ "country", "political" ]
            }
         ],
         "formatted_address" : "İzmit/Kocaeli, Turkey",
         "geometry" : {
            "bounds" : {
               "northeast" : {
                  "lat" : 40.971557,
                  "lng" : 30.2639339
               },
               "southwest" : {
                  "lat" : 40.720553,
                  "lng" : 29.8541681
               }
            },
            "location" : {
               "lat" : 40.8506635,
               "lng" : 30.0202964
            },
            "location_type" : "APPROXIMATE",
            "viewport" : {
               "northeast" : {
                  "lat" : 40.971557,
                  "lng" : 30.2639339
               },
               "southwest" : {
                  "lat" : 40.720553,
                  "lng" : 29.8541681
               }
            }
         },
         "place_id" : "ChIJL2DfPLZQyxQRitx6sY9PIGU",
         "types" : [ "administrative_area_level_2", "political" ]
      },
      {
         "address_components" : [
            {
               "long_name" : "Kocaeli",
               "short_name" : "Kocaeli",
               "types" : [ "administrative_area_level_1", "political" ]
            },
            {
               "long_name" : "Turkey",
               "short_name" : "TR",
               "types" : [ "country", "political" ]
            }
         ],
         "formatted_address" : "Kocaeli, Turkey",
         "geometry" : {
            "bounds" : {
               "northeast" : {
                  "lat" : 41.20976,
                  "lng" : 30.367743
               },
               "southwest" : {
                  "lat" : 40.524151,
                  "lng" : 29.3331261
               }
            },
            "location" : {
               "lat" : 40.8532704,
               "lng" : 29.8815203
            },
            "location_type" : "APPROXIMATE",
            "viewport" : {
               "northeast" : {
                  "lat" : 41.20976,
                  "lng" : 30.367743
               },
               "southwest" : {
                  "lat" : 40.524151,
                  "lng" : 29.3331261
               }
            }
         },
         "place_id" : "ChIJQ8zKb5QgyxQRWdhW642zLKg",
         "types" : [ "administrative_area_level_1", "political" ]
      },
      {
         "address_components" : [
            {
               "long_name" : "Turkey",
               "short_name" : "TR",
               "types" : [ "country", "political" ]
            }
         ],
         "formatted_address" : "Turkey",
         "geometry" : {
            "bounds" : {
               "northeast" : {
                  "lat" : 42.3666999,
                  "lng" : 44.8178449
               },
               "southwest" : {
                  "lat" : 35.808592,
                  "lng" : 25.5377
               }
            },
            "location" : {
               "lat" : 38.963745,
               "lng" : 35.243322
            },
            "location_type" : "APPROXIMATE",
            "viewport" : {
               "northeast" : {
                  "lat" : 42.3666999,
                  "lng" : 44.8178449
               },
               "southwest" : {
                  "lat" : 35.808592,
                  "lng" : 25.5377
               }
            }
         },
         "place_id" : "ChIJcSZPllwVsBQRKl9iKtTb2UA",
         "types" : [ "country", "political" ]
      }
   ],
   "status" : "OK"
}
