{
   "plus_code" : {
      "compound_code" : "QW5P+GC8 İzmit/Kocaeli, Turkey",
      "global_code" : "8GGFQW5P+GC8"
   },
   "results" : [
      {
         "address_components" : [
            {
               "long_name" : "7",
               "short_name" : "7",
               "types" : [ "street_number" ]
            },
            {
               "long_name" : "Sanayi Fuarı 6. Caddesi",
               "short_name" : "Sanayi Fuarı 6. Cd",
               "types" : [ "route" ]
            },
            {
               "long_name" : "Karabaş Mh.",
               "short_name" : "Karabaş Mh.",
               "types" : [ "administrative_area_level_4", "political" ]
            },
            {
               "long_name" : "İzmit",
               "short_name" : "İzmit",
               "types" : [ "administrative_area_level_2", "political" ]
            },
            {
               "long_name" : "Kocaeli",
               "short_name" : "Kocaeli",
               "types" : [ "administrative_area_level_1", "political" ]
            },
            {
               "long_name" : "Turkey",
               "short_name" : "TR",
               "types" : [ "country", "political" ]
            },
            {
               "long_name" : "41040",
               "short_name" : "41040",
               "types" : [ "postal_code" ]
            }
         ],
         "formatted_address" : "Karabaş Mh., Sanayi Fuarı 6. Cd No:7, 41040 İzmit/Kocaeli, Turkey",
         "geometry" : {
            "location" : {
               "lat" : 40.758664,
               "lng" : 29.937015
            },
            "location_type" : "ROOFTOP",
            "viewport" : {
               "northeast" : {
                  "lat" : 40.76001298029151,
                  "lng" : 29.9383639802915
               },
               "southwest" : {
                  "lat" : 40.75731501970851,
                  "lng" : 29.9356660197085
               }
            }
         },
         "place_id" : "ChIJf-X1fHtFyxQRfzaeeOf0nW4",
         "plus_code" : {
            "compound_code" : "QW5P+FR İzmit/Kocaeli, Turkey",
            "global_code" : "8GGFQW5P+FR"
         },
         "types" : [ "street_address" ]
      },
      {
         "address_components" : [
            {
               "long_name" : "17",
               "short_name" : "17",
               "types" : [ "street_number" ]
            },
            {
               "long_name" : "1. Caddesi",
               "short_name" : "1. Cd.",
               "types" : [ "route" ]
            },
            {
               "long_name" : "Karabaş",
               "short_name" : "Karabaş",
               "types" : [ "administrative_area_level_4", "political" ]
            },
            {
               "long_name" : "İzmit",
               "short_name" : "İzmit",
               "types" : [ "administrative_area_level_2", "political" ]
            },
            {
               "long_name" : "Kocaeli",
               "short_name" : "Kocaeli",
               "types" : [ "administrative_area_level_1", "political" ]
            },
            {
               "long_name" : "Turkey",
               "short_name" : "TR",
               "types" : [ "country", "political" ]
            },
            {
               "long_name" : "41040",
               "short_name" : "41040",
               "types" : [ "postal_code" ]
            }
         ],
         "formatted_address" : "Karabaş, 1. Cd. No:17, 41040 İzmit/Kocaeli, Turkey",
         "geometry" : {
            "bounds" : {
               "northeast" : {
                  "lat" : 40.7585379,
                  "lng" : 29.9352888
               },
               "southwest" : {
                  "lat" : 40.7583797,
                  "lng" : 29.935056
               }
            },
            "location" : {
               "lat" : 40.7584653,
               "lng" : 29.9351818
            },
            "location_type" : "ROOFTOP",
            "viewport" : {
               "northeast" : {
                  "lat" : 40.7598077802915,
                  "lng" : 29.9365213802915
               },
               "southwest" : {
                  "lat" : 40.7571098197085,
                  "lng" : 29.9338234197085
               }
            }
         },
         "place_id" : "ChIJm_iMlHtFyxQRkwTPBxoJ4wk",
         "types" : [ "premise" ]
      },
      {
         "address_components" : [
            {
               "long_name" : "QW5P+GC",
               "short_name" : "QW5P+GC",
               "types" : [ "plus_code" ]
            },
            {
               "long_name" : "İzmit",
               "short_name" : "İzmit",
               "types" : [ "administrative_area_level_2", "political" ]
            },
            {
               "long_name" : "Kocaeli",
               "short_name" : "Kocaeli",
               "types" : [ "administrative_area_level_1", "political" ]
            },
            {
               "long_name" : "Turkey",
               "short_name" : "TR",
               "types" : [ "country", "political" ]
            }
         ],
         "formatted_address" : "QW5P+GC İzmit/Kocaeli, Turkey",
         "geometry" : {
            "bounds" : {
               "northeast" : {
                  "lat" : 40.758875,
                  "lng" : 29.936125
               },
               "southwest" : {
                  "lat" : 40.75875000000001,
                  "lng" : 29.936
               }
            },
            "location" : {
               "lat" : 40.7587979,
               "lng" : 29.9360704
            },
            "location_type" : "GEOMETRIC_CENTER",
            "viewport" : {
               "northeast" : {
                  "lat" : 40.7601614802915,
                  "lng" : 29.9374114802915
               },
               "southwest" : {
                  "lat" : 40.7574635197085,
                  "lng" : 29.9347135197085
               }
            }
         },
         "place_id" : "GhIJAWMiSiBhREAR78BKT6LvPUA",
         "plus_code" : {
            "compound_code" : "QW5P+GC İzmit/Kocaeli, Turkey",
            "global_code" : "8GGFQW5P+GC"
         },
         "types" : [ "plus_code" ]
      },
      {
         "address_components" : [
            {
               "long_name" : "22",
               "short_name" : "22",
               "types" : [ "street_number" ]
            },
            {
               "long_name" : "6. Caddesi",
               "short_name" : "6. Cd.",
               "types" : [ "route" ]
            },
            {
               "long_name" : "Karabaş",
               "short_name" : "Karabaş",
               "types" : [ "administrative_area_level_4", "political" ]
            },
            {
               "long_name" : "İzmit",
               "short_name" : "İzmit",
               "types" : [ "administrative_area_level_2", "political" ]
            },
            {
               "long_name" : "Kocaeli",
               "short_name" : "Kocaeli",
               "types" : [ "administrative_area_level_1", "political" ]
            },
            {
               "long_name" : "Turkey",
               "short_name" : "TR",
               "types" : [ "country", "political" ]
            },
            {
               "long_name" : "41040",
               "short_name" : "41040",
               "types" : [ "postal_code" ]
            }
         ],
         "formatted_address" : "Karabaş, 6. Cd. No:22, 41040 İzmit/Kocaeli, Turkey",
         "geometry" : {
            "location" : {
               "lat" : 40.7584245,
               "lng" : 29.9367679
            },
            "location_type" : "RANGE_INTERPOLATED",
            "viewport" : {
               "northeast" : {
                  "lat" : 40.75977348029149,
                  "lng" : 29.9381168802915
               },
               "southwest" : {
                  "lat" : 40.75707551970849,
                  "lng" : 29.9354189197085
               }
            }
         },
         "place_id" : "EjRLYXJhYmHFnywgNi4gQ2QuIE5vOjIyLCA0MTA0MCDEsHptaXQvS29jYWVsaSwgVHVya2V5IhoSGAoUChIJD7_7mHtFyxQRruu5AVGXvj8QFg",
         "types" : [ "street_address" ]
      },
      {
         "address_components" : [
            {
               "long_name" : "20-22",
               "short_name" : "20-22",
               "types" : [ "street_number" ]
            },
            {
               "long_name" : "6. Caddesi",
               "short_name" : "6. Cd.",
               "types" : [ "route" ]
            },
            {
               "long_name" : "Karabaş",
               "short_name" : "Karabaş",
               "types" : [ "administrative_area_level_4", "political" ]
            },
            {
               "long_name" : "İzmit",
               "short_name" : "İzmit",
               "types" : [ "administrative_area_level_2", "political" ]
            },
            {
               "long_name" : "Kocaeli",
               "short_name" : "Kocaeli",
               "types" : [ "administrative_area_level_1", "political" ]
            },
            {
               "long_name" : "Turkey",
               "short_name" : "TR",
               "types" : [ "country", "political" ]
            },
            {
               "long_name" : "41040",
               "short_name" : "41040",
               "types" : [ "postal_code" ]
            }
         ],
         "formatted_address" : "Karabaş, 6. Cd. 20-22, 41040 İzmit/Kocaeli, Turkey",
         "geometry" : {
            "bounds" : {
               "northeast" : {
                  "lat" : 40.758551,
                  "lng" : 29.9370105
               },
               "southwest" : {
                  "lat" : 40.7582954,
                  "lng" : 29.9366528
               }
            },
            "location" : {
               "lat" : 40.7584506,
               "lng" : 29.9367977
            },
            "location_type" : "GEOMETRIC_CENTER",
            "viewport" : {
               "northeast" : {
                  "lat" : 40.7597721802915,
                  "lng" : 29.93818063029149
               },
               "southwest" : {
                  "lat" : 40.75707421970851,
                  "lng" : 29.9354826697085
               }
            }
         },
         "place_id" : "ChIJD7_7mHtFyxQRruu5AVGXvj8",
         "types" : [ "route" ]
      },
      {
         "address_components" : [
            {
               "long_name" : "41040",
               "short_name" : "41040",
               "types" : [ "postal_code" ]
            },
            {
               "long_name" : "Karabaş",
               "short_name" : "Karabaş",
               "types" : [ "administrative_area_level_4", "political" ]
            },
            {
               "long_name" : "İzmit",
               "short_name" : "İzmit",
               "types" : [ "administrative_area_level_2", "political" ]
            },
            {
               "long_name" : "Kocaeli",
               "short_name" : "Kocaeli",
               "types" : [ "administrative_area_level_1", "political" ]
            },
            {
               "long_name" : "Turkey",
               "short_name" : "TR",
               "types" : [ "country", "political" ]
            }
         ],
         "formatted_address" : "Karabaş, 41040 İzmit/Kocaeli, Turkey",
         "geometry" : {
            "bounds" : {
               "northeast" : {
                  "lat" : 40.7667129,
                  "lng" : 29.943491
               },
               "southwest" : {
                  "lat" : 40.756448,
                  "lng" : 29.9300489
               }
            },
            "location" : {
               "lat" : 40.7613341,
               "lng" : 29.9364694
            },
            "location_type" : "APPROXIMATE",
            "viewport" : {
               "northeast" : {
                  "lat" : 40.7667129,
                  "lng" : 29.943491
               },
               "southwest" : {
                  "lat" : 40.756448,
                  "lng" : 29.9300489
               }
            }
         },
         "place_id" : "ChIJA0a6Bn1FyxQRL8UDW4V3ijA",
         "types" : [ "postal_code" ]
      },
      {
         "address_components" : [
            {
               "long_name" : "Karabaş",
               "short_name" : "Karabaş",
               "types" : [ "administrative_area_level_4", "political" ]
            },
            {
               "long_name" : "İzmit",
               "short_name" : "İzmit",
               "types" : [ "administrative_area_level_2", "political" ]
            },
            {
               "long_name" : "Kocaeli",
               "short_name" : "Kocaeli",
               "types" : [ "administrative_area_level_1", "political" ]
            },
            {
               "long_name" : "Turkey",
               "short_name" : "TR",
               "types" : [ "country", "political" ]
            },
            {
               "long_name" : "41040",
               "short_name" : "41040",
               "types" : [ "postal_code" ]
            }
         ],
         "formatted_address" : "Karabaş, 41040 İzmit/Kocaeli, Turkey",
         "geometry" : {
            "bounds" : {
               "northeast" : {
                  "lat" : 40.7667129,
                  "lng" : 29.943597
               },
               "southwest" : {
                  "lat" : 40.756448,
                  "lng" : 29.9300489
               }
            },
            "location" : {
               "lat" : 40.760589,
               "lng" : 29.9350236
            },
            "location_type" : "APPROXIMATE",
            "viewport" : {
               "northeast" : {
                  "lat" : 40.7667129,
                  "lng" : 29.943597
               },
               "southwest" : {
                  "lat" : 40.756448,
                  "lng" : 29.9300489
               }
            }
         },
         "place_id" : "ChIJy2tEBH1FyxQRqAdBNjma23o",
         "types" : [ "administrative_area_level_4", "political" ]
      },
      {
         "address_components" : [
            {
               "long_name" : "İzmit",
               "short_name" : "İzmit",
               "types" : [ "locality", "political" ]
            },
            {
               "long_name" : "İzmit",
               "short_name" : "İzmit",
               "types" : [ "administrative_area_level_2", "political" ]
            },
            {
               "long_name" : "Kocaeli",
               "short_name" : "Kocaeli",
               "types" : [ "administrative_area_level_1", "political" ]
            },
            {
               "long_name" : "Turkey",
               "short_name" : "TR",
               "types" : [ "country", "political" ]
            }
         ],
         "formatted_address" : "İzmit, Kocaeli, Turkey",
         "geometry" : {
            "bounds" : {
               "northeast" : {
                  "lat" : 40.805401,
                  "lng" : 30.014834
               },
               "southwest" : {
                  "lat" : 40.736827,
                  "lng" : 29.8541681
               }
            },
            "location" : {
               "lat" : 40.7654408,
               "lng" : 29.9408089
            },
            "location_type" : "APPROXIMATE",
            "viewport" : {
               "northeast" : {
                  "lat" : 40.805401,
                  "lng" : 30.014834
               },
               "southwest" : {
                  "lat" : 40.736827,
                  "lng" : 29.8541681
               }
            }
         },
         "place_id" : "ChIJnftLZGZPyxQRuX5rWOcOaYI",
         "types" : [ "locality", "political" ]
      },
      {
         "address_components" : [
            {
               "long_name" : "İzmit",
               "short_name" : "İzmit",
               "types" : [ "administrative_area_level_2", "political" ]
            },
            {
               "long_name" : "Kocaeli",
               "short_name" : "Kocaeli",
               "types" : [ "administrative_area_level_1", "political" ]
            },
            {
               "long_name" : "Turkey",
               "short_name" : "TR",
               "types" : [ "country", "political" ]
            }
         ],
         "formatted_address" : "İzmit/Kocaeli, Turkey",
         "geometry" : {
            "bounds" : {
               "northeast" : {
                  "lat" : 40.971557,
                  "lng" : 30.2639339
               },
               "southwest" : {
                  "lat" : 40.720553,
                  "lng" : 29.8541681
               }
            },
            "location" : {
               "lat" : 40.8506635,
               "lng" : 30.0202964
            },
            "location_type" : "APPROXIMATE",
            "viewport" : {
               "northeast" : {
                  "lat" : 40.971557,
                  "lng" : 30.2639339
               },
               "southwest" : {
                  "lat" : 40.720553,
                  "lng" : 29.8541681
               }
            }
         },
         "place_id" : "ChIJL2DfPLZQyxQRitx6sY9PIGU",
         "types" : [ "administrative_area_level_2", "political" ]
      },
      {
         "address_components" : [
            {
               "long_name" : "Kocaeli",
               "short_name" : "Kocaeli",
               "types" : [ "administrative_area_level_1", "political" ]
            },
            {
               "long_name" : "Turkey",
               "short_name" : "TR",
               "types" : [ "country", "political" ]
            }
         ],
         "formatted_address" : "Kocaeli, Turkey",
         "geometry" : {
            "bounds" : {
               "northeast" : {
                  "lat" : 41.20976,
                  "lng" : 30.367743
               },
               "southwest" : {
                  "lat" : 40.524151,
                  "lng" : 29.3331261
               }
            },
            "location" : {
               "lat" : 40.8532704,
               "lng" : 29.8815203
            },
            "location_type" : "APPROXIMATE",
            "viewport" : {
               "northeast" : {
                  "lat" : 41.20976,
                  "lng" : 30.367743
               },
               "southwest" : {
                  "lat" : 40.524151,
                  "lng" : 29.3331261
               }
            }
         },
         "place_id" : "ChIJQ8zKb5QgyxQRWdhW642zLKg",
         "types" : [ "administrative_area_level_1", "political" ]
      },
      {
         "address_components" : [
            {
               "long_name" : "Turkey",
               "short_name" : "TR",
               "types" : [ "country", "political" ]
            }
         ],
         "formatted_address" : "Turkey",
         "geometry" : {
            "bounds" : {
               "northeast" : {
                  "lat" : 42.3666999,
                  "lng" : 44.8178449
               },
               "southwest" : {
                  "lat" : 35.808592,
                  "lng" : 25.5377
               }
            },
            "location" : {
               "lat" : 38.963745,
               "lng" : 35.243322
            },
            "location_type" : "APPROXIMATE",
            "viewport" : {
               "northeast" : {
                  "lat" : 42.3666999,
                  "lng" : 44.8178449
               },
               "southwest" : {
                  "lat" : 35.808592,
                  "lng" : 25.5377
               }
            }
         },
         "place_id" : "ChIJcSZPllwVsBQRKl9iKtTb2UA",
         "types" : [ "country", "political" ]
      }
   ],
   "status" : "OK"
}
