{
   "plus_code" : {
      "compound_code" : "QWJJ+9HH İzmit/Kocaeli, Turkey",
      "global_code" : "8GGFQWJJ+9HH"
   },
   "results" : [
      {
         "address_components" : [
            {
               "long_name" : "149",
               "short_name" : "149",
               "types" : [ "street_number" ]
            },
            {
               "long_name" : "Gazanfer Bilge Bulvarı",
               "short_name" : "Gazanfer Bilge Blv.",
               "types" : [ "route" ]
            },
            {
               "long_name" : "Orhan",
               "short_name" : "Orhan",
               "types" : [ "administrative_area_level_4", "political" ]
            },
            {
               "long_name" : "İzmit",
               "short_name" : "İzmit",
               "types" : [ "administrative_area_level_2", "political" ]
            },
            {
               "long_name" : "Kocaeli",
               "short_name" : "Kocaeli",
               "types" : [ "administrative_area_level_1", "political" ]
            },
            {
               "long_name" : "Turkey",
               "short_name" : "TR",
               "types" : [ "country", "political" ]
            },
            {
               "long_name" : "41200",
               "short_name" : "41200",
               "types" : [ "postal_code" ]
            }
         ],
         "formatted_address" : "Orhan, Gazanfer Bilge Blv. No:149, 41200 İzmit/Kocaeli, Turkey",
         "geometry" : {
            "location" : {
               "lat" : 40.7809079,
               "lng" : 29.931735
            },
            "location_type" : "ROOFTOP",
            "viewport" : {
               "northeast" : {
                  "lat" : 40.78225688029149,
                  "lng" : 29.9330839802915
               },
               "southwest" : {
                  "lat" : 40.77955891970849,
                  "lng" : 29.9303860197085
               }
            }
         },
         "place_id" : "ChIJyaz5455PyxQRLENiKnibmK0",
         "plus_code" : {
            "compound_code" : "QWJJ+9M İzmit/Kocaeli, Turkey",
            "global_code" : "8GGFQWJJ+9M"
         },
         "types" : [ "street_address" ]
      },
      {
         "address_components" : [
            {
               "long_name" : "No:149",
               "short_name" : "No:149",
               "types" : [ "street_number" ]
            },
            {
               "long_name" : "Gazanfer Bilge Bulvarı",
               "short_name" : "Gazanfer Bilge Blv.",
               "types" : [ "route" ]
            },
            {
               "long_name" : "Orhan",
               "short_name" : "Orhan",
               "types" : [ "administrative_area_level_4", "political" ]
            },
            {
               "long_name" : "İzmit",
               "short_name" : "İzmit",
               "types" : [ "administrative_area_level_2", "political" ]
            },
            {
               "long_name" : "Kocaeli",
               "short_name" : "Kocaeli",
               "types" : [ "administrative_area_level_1", "political" ]
            },
            {
               "long_name" : "Turkey",
               "short_name" : "TR",
               "types" : [ "country", "political" ]
            },
            {
               "long_name" : "41200",
               "short_name" : "41200",
               "types" : [ "postal_code" ]
            }
         ],
         "formatted_address" : "Orhan, Gazanfer Bilge Blv. No:149, 41200 İzmit/Kocaeli, Turkey",
         "geometry" : {
            "location" : {
               "lat" : 40.7809079,
               "lng" : 29.931735
            },
            "location_type" : "ROOFTOP",
            "viewport" : {
               "northeast" : {
                  "lat" : 40.78225688029149,
                  "lng" : 29.9330839802915
               },
               "southwest" : {
                  "lat" : 40.77955891970849,
                  "lng" : 29.9303860197085
               }
            }
         },
         "place_id" : "ChIJyaz5455PyxQRCScidEETs9E",
         "plus_code" : {
            "compound_code" : "QWJJ+9M İzmit/Kocaeli, Turkey",
            "global_code" : "8GGFQWJJ+9M"
         },
         "types" : [
            "establishment",
            "food",
            "grocery_or_supermarket",
            "point_of_interest",
            "store"
         ]
      },
      {
         "address_components" : [
            {
               "long_name" : "149",
               "short_name" : "149",
               "types" : [ "street_number" ]
            },
            {
               "long_name" : "Gazanfer Bilge Bulvarı",
               "short_name" : "Gazanfer Bilge Blv.",
               "types" : [ "route" ]
            },
            {
               "long_name" : "Orhan",
               "short_name" : "Orhan",
               "types" : [ "administrative_area_level_4", "political" ]
            },
            {
               "long_name" : "İzmit",
               "short_name" : "İzmit",
               "types" : [ "administrative_area_level_2", "political" ]
            },
            {
               "long_name" : "Kocaeli",
               "short_name" : "Kocaeli",
               "types" : [ "administrative_area_level_1", "political" ]
            },
            {
               "long_name" : "Turkey",
               "short_name" : "TR",
               "types" : [ "country", "political" ]
            },
            {
               "long_name" : "41300",
               "short_name" : "41300",
               "types" : [ "postal_code" ]
            }
         ],
         "formatted_address" : "Orhan, Gazanfer Bilge Blv. No:149, 41300 İzmit/Kocaeli, Turkey",
         "geometry" : {
            "location" : {
               "lat" : 40.78099810000001,
               "lng" : 29.9318592
            },
            "location_type" : "RANGE_INTERPOLATED",
            "viewport" : {
               "northeast" : {
                  "lat" : 40.78234708029151,
                  "lng" : 29.9332081802915
               },
               "southwest" : {
                  "lat" : 40.77964911970851,
                  "lng" : 29.9305102197085
               }
            }
         },
         "place_id" : "Ej9PcmhhbiwgR2F6YW5mZXIgQmlsZ2UgQmx2LiBObzoxNDksIDQxMzAwIMSwem1pdC9Lb2NhZWxpLCBUdXJrZXkiGxIZChQKEgmnAx7hnk_LFBHyXYQ8GZ49xRCVAQ",
         "types" : [ "street_address" ]
      },
      {
         "address_components" : [
            {
               "long_name" : "43-35",
               "short_name" : "43-35",
               "types" : [ "street_number" ]
            },
            {
               "long_name" : "Elvan Sokak",
               "short_name" : "Elvan Sk.",
               "types" : [ "route" ]
            },
            {
               "long_name" : "Orhan",
               "short_name" : "Orhan",
               "types" : [ "administrative_area_level_4", "political" ]
            },
            {
               "long_name" : "İzmit",
               "short_name" : "İzmit",
               "types" : [ "administrative_area_level_2", "political" ]
            },
            {
               "long_name" : "Kocaeli",
               "short_name" : "Kocaeli",
               "types" : [ "administrative_area_level_1", "political" ]
            },
            {
               "long_name" : "Turkey",
               "short_name" : "TR",
               "types" : [ "country", "political" ]
            },
            {
               "long_name" : "41200",
               "short_name" : "41200",
               "types" : [ "postal_code" ]
            }
         ],
         "formatted_address" : "Orhan, Elvan Sk. 43-35, 41200 İzmit/Kocaeli, Turkey",
         "geometry" : {
            "bounds" : {
               "northeast" : {
                  "lat" : 40.7812505,
                  "lng" : 29.9315094
               },
               "southwest" : {
                  "lat" : 40.7806529,
                  "lng" : 29.9299519
               }
            },
            "location" : {
               "lat" : 40.7812434,
               "lng" : 29.9310187
            },
            "location_type" : "GEOMETRIC_CENTER",
            "viewport" : {
               "northeast" : {
                  "lat" : 40.7823006802915,
                  "lng" : 29.9320796302915
               },
               "southwest" : {
                  "lat" : 40.7796027197085,
                  "lng" : 29.9293816697085
               }
            }
         },
         "place_id" : "ChIJOQm5-J5PyxQR6BvkOJ5A62c",
         "types" : [ "route" ]
      },
      {
         "address_components" : [
            {
               "long_name" : "QWJJ+9H",
               "short_name" : "QWJJ+9H",
               "types" : [ "plus_code" ]
            },
            {
               "long_name" : "İzmit",
               "short_name" : "İzmit",
               "types" : [ "administrative_area_level_2", "political" ]
            },
            {
               "long_name" : "Kocaeli",
               "short_name" : "Kocaeli",
               "types" : [ "administrative_area_level_1", "political" ]
            },
            {
               "long_name" : "Turkey",
               "short_name" : "TR",
               "types" : [ "country", "political" ]
            }
         ],
         "formatted_address" : "QWJJ+9H İzmit/Kocaeli, Turkey",
         "geometry" : {
            "bounds" : {
               "northeast" : {
                  "lat" : 40.781,
                  "lng" : 29.9315
               },
               "southwest" : {
                  "lat" : 40.78087499999999,
                  "lng" : 29.931375
               }
            },
            "location" : {
               "lat" : 40.78093140000001,
               "lng" : 29.9314785
            },
            "location_type" : "GEOMETRIC_CENTER",
            "viewport" : {
               "northeast" : {
                  "lat" : 40.7822864802915,
                  "lng" : 29.9327864802915
               },
               "southwest" : {
                  "lat" : 40.7795885197085,
                  "lng" : 29.9300885197085
               }
            }
         },
         "place_id" : "GhIJs7Vjj_VjREARWG3-X3XuPUA",
         "plus_code" : {
            "compound_code" : "QWJJ+9H İzmit/Kocaeli, Turkey",
            "global_code" : "8GGFQWJJ+9H"
         },
         "types" : [ "plus_code" ]
      },
      {
         "address_components" : [
            {
               "long_name" : "Orhan",
               "short_name" : "Orhan",
               "types" : [ "administrative_area_level_4", "political" ]
            },
            {
               "long_name" : "İzmit",
               "short_name" : "İzmit",
               "types" : [ "administrative_area_level_2", "political" ]
            },
            {
               "long_name" : "Kocaeli",
               "short_name" : "Kocaeli",
               "types" : [ "administrative_area_level_1", "political" ]
            },
            {
               "long_name" : "Turkey",
               "short_name" : "TR",
               "types" : [ "country", "political" ]
            },
            {
               "long_name" : "41200",
               "short_name" : "41200",
               "types" : [ "postal_code" ]
            }
         ],
         "formatted_address" : "Orhan, 41200 İzmit/Kocaeli, Turkey",
         "geometry" : {
            "bounds" : {
               "northeast" : {
                  "lat" : 40.7847741,
                  "lng" : 29.932371
               },
               "southwest" : {
                  "lat" : 40.7670771,
                  "lng" : 29.9179129
               }
            },
            "location" : {
               "lat" : 40.77541,
               "lng" : 29.9256259
            },
            "location_type" : "APPROXIMATE",
            "viewport" : {
               "northeast" : {
                  "lat" : 40.7847741,
                  "lng" : 29.932371
               },
               "southwest" : {
                  "lat" : 40.7670771,
                  "lng" : 29.9179129
               }
            }
         },
         "place_id" : "ChIJXX0jAp1PyxQR4N-iI8tCDbE",
         "types" : [ "administrative_area_level_4", "political" ]
      },
      {
         "address_components" : [
            {
               "long_name" : "41200",
               "short_name" : "41200",
               "types" : [ "postal_code" ]
            },
            {
               "long_name" : "Orhan",
               "short_name" : "Orhan",
               "types" : [ "administrative_area_level_4", "political" ]
            },
            {
               "long_name" : "İzmit",
               "short_name" : "İzmit",
               "types" : [ "administrative_area_level_2", "political" ]
            },
            {
               "long_name" : "Kocaeli",
               "short_name" : "Kocaeli",
               "types" : [ "administrative_area_level_1", "political" ]
            },
            {
               "long_name" : "Turkey",
               "short_name" : "TR",
               "types" : [ "country", "political" ]
            }
         ],
         "formatted_address" : "Orhan, 41200 İzmit/Kocaeli, Turkey",
         "geometry" : {
            "bounds" : {
               "northeast" : {
                  "lat" : 40.7847741,
                  "lng" : 29.932371
               },
               "southwest" : {
                  "lat" : 40.7670771,
                  "lng" : 29.9179129
               }
            },
            "location" : {
               "lat" : 40.77541,
               "lng" : 29.9256259
            },
            "location_type" : "APPROXIMATE",
            "viewport" : {
               "northeast" : {
                  "lat" : 40.7847741,
                  "lng" : 29.932371
               },
               "southwest" : {
                  "lat" : 40.7670771,
                  "lng" : 29.9179129
               }
            }
         },
         "place_id" : "ChIJDXu8K3hPyxQRG-wR91S_3Ow",
         "types" : [ "postal_code" ]
      },
      {
         "address_components" : [
            {
               "long_name" : "İzmit",
               "short_name" : "İzmit",
               "types" : [ "locality", "political" ]
            },
            {
               "long_name" : "İzmit",
               "short_name" : "İzmit",
               "types" : [ "administrative_area_level_2", "political" ]
            },
            {
               "long_name" : "Kocaeli",
               "short_name" : "Kocaeli",
               "types" : [ "administrative_area_level_1", "political" ]
            },
            {
               "long_name" : "Turkey",
               "short_name" : "TR",
               "types" : [ "country", "political" ]
            }
         ],
         "formatted_address" : "İzmit, Kocaeli, Turkey",
         "geometry" : {
            "bounds" : {
               "northeast" : {
                  "lat" : 40.805401,
                  "lng" : 30.014834
               },
               "southwest" : {
                  "lat" : 40.736827,
                  "lng" : 29.8541681
               }
            },
            "location" : {
               "lat" : 40.7654408,
               "lng" : 29.9408089
            },
            "location_type" : "APPROXIMATE",
            "viewport" : {
               "northeast" : {
                  "lat" : 40.805401,
                  "lng" : 30.014834
               },
               "southwest" : {
                  "lat" : 40.736827,
                  "lng" : 29.8541681
               }
            }
         },
         "place_id" : "ChIJnftLZGZPyxQRuX5rWOcOaYI",
         "types" : [ "locality", "political" ]
      },
      {
         "address_components" : [
            {
               "long_name" : "İzmit",
               "short_name" : "İzmit",
               "types" : [ "administrative_area_level_2", "political" ]
            },
            {
               "long_name" : "Kocaeli",
               "short_name" : "Kocaeli",
               "types" : [ "administrative_area_level_1", "political" ]
            },
            {
               "long_name" : "Turkey",
               "short_name" : "TR",
               "types" : [ "country", "political" ]
            }
         ],
         "formatted_address" : "İzmit/Kocaeli, Turkey",
         "geometry" : {
            "bounds" : {
               "northeast" : {
                  "lat" : 40.971557,
                  "lng" : 30.2639339
               },
               "southwest" : {
                  "lat" : 40.720553,
                  "lng" : 29.8541681
               }
            },
            "location" : {
               "lat" : 40.8506635,
               "lng" : 30.0202964
            },
            "location_type" : "APPROXIMATE",
            "viewport" : {
               "northeast" : {
                  "lat" : 40.971557,
                  "lng" : 30.2639339
               },
               "southwest" : {
                  "lat" : 40.720553,
                  "lng" : 29.8541681
               }
            }
         },
         "place_id" : "ChIJL2DfPLZQyxQRitx6sY9PIGU",
         "types" : [ "administrative_area_level_2", "political" ]
      },
      {
         "address_components" : [
            {
               "long_name" : "Kocaeli",
               "short_name" : "Kocaeli",
               "types" : [ "administrative_area_level_1", "political" ]
            },
            {
               "long_name" : "Turkey",
               "short_name" : "TR",
               "types" : [ "country", "political" ]
            }
         ],
         "formatted_address" : "Kocaeli, Turkey",
         "geometry" : {
            "bounds" : {
               "northeast" : {
                  "lat" : 41.20976,
                  "lng" : 30.367743
               },
               "southwest" : {
                  "lat" : 40.524151,
                  "lng" : 29.3331261
               }
            },
            "location" : {
               "lat" : 40.8532704,
               "lng" : 29.8815203
            },
            "location_type" : "APPROXIMATE",
            "viewport" : {
               "northeast" : {
                  "lat" : 41.20976,
                  "lng" : 30.367743
               },
               "southwest" : {
                  "lat" : 40.524151,
                  "lng" : 29.3331261
               }
            }
         },
         "place_id" : "ChIJQ8zKb5QgyxQRWdhW642zLKg",
         "types" : [ "administrative_area_level_1", "political" ]
      },
      {
         "address_components" : [
            {
               "long_name" : "Turkey",
               "short_name" : "TR",
               "types" : [ "country", "political" ]
            }
         ],
         "formatted_address" : "Turkey",
         "geometry" : {
            "bounds" : {
               "northeast" : {
                  "lat" : 42.3666999,
                  "lng" : 44.8178449
               },
               "southwest" : {
                  "lat" : 35.808592,
                  "lng" : 25.5377
               }
            },
            "location" : {
               "lat" : 38.963745,
               "lng" : 35.243322
            },
            "location_type" : "APPROXIMATE",
            "viewport" : {
               "northeast" : {
                  "lat" : 42.3666999,
                  "lng" : 44.8178449
               },
               "southwest" : {
                  "lat" : 35.808592,
                  "lng" : 25.5377
               }
            }
         },
         "place_id" : "ChIJcSZPllwVsBQRKl9iKtTb2UA",
         "types" : [ "country", "political" ]
      }
   ],
   "status" : "OK"
}
