{
   "plus_code" : {
      "compound_code" : "QX62+C9 İzmit/Kocaeli, Turkey",
      "global_code" : "8GGFQX62+C9"
   },
   "results" : [
      {
         "address_components" : [
            {
               "long_name" : "6",
               "short_name" : "6",
               "types" : [ "street_number" ]
            },
            {
               "long_name" : "Şehit Remzi Caddesi",
               "short_name" : "Şht. Remzi Cd.",
               "types" : [ "route" ]
            },
            {
               "long_name" : "Körfez",
               "short_name" : "Körfez",
               "types" : [ "administrative_area_level_4", "political" ]
            },
            {
               "long_name" : "İzmit",
               "short_name" : "İzmit",
               "types" : [ "administrative_area_level_2", "political" ]
            },
            {
               "long_name" : "Kocaeli",
               "short_name" : "Kocaeli",
               "types" : [ "administrative_area_level_1", "political" ]
            },
            {
               "long_name" : "Turkey",
               "short_name" : "TR",
               "types" : [ "country", "political" ]
            },
            {
               "long_name" : "41040",
               "short_name" : "41040",
               "types" : [ "postal_code" ]
            }
         ],
         "formatted_address" : "Körfez, Şht. Remzi Cd. No:6, 41040 İzmit/Kocaeli, Turkey",
         "geometry" : {
            "location" : {
               "lat" : 40.7612501,
               "lng" : 29.951029
            },
            "location_type" : "ROOFTOP",
            "viewport" : {
               "northeast" : {
                  "lat" : 40.7625990802915,
                  "lng" : 29.9523779802915
               },
               "southwest" : {
                  "lat" : 40.7599011197085,
                  "lng" : 29.9496800197085
               }
            }
         },
         "place_id" : "ChIJzy6iMvVPyxQR4fjH-OrzmSs",
         "plus_code" : {
            "compound_code" : "QX62+GC İzmit/Kocaeli, Turkey",
            "global_code" : "8GGFQX62+GC"
         },
         "types" : [ "street_address" ]
      },
      {
         "address_components" : [
            {
               "long_name" : "25",
               "short_name" : "25",
               "types" : [ "street_number" ]
            },
            {
               "long_name" : "Şehit Remzi Caddesi",
               "short_name" : "Şht. Remzi Cd.",
               "types" : [ "route" ]
            },
            {
               "long_name" : "Körfez",
               "short_name" : "Körfez",
               "types" : [ "administrative_area_level_4", "political" ]
            },
            {
               "long_name" : "İzmit",
               "short_name" : "İzmit",
               "types" : [ "administrative_area_level_2", "political" ]
            },
            {
               "long_name" : "Kocaeli",
               "short_name" : "Kocaeli",
               "types" : [ "administrative_area_level_1", "political" ]
            },
            {
               "long_name" : "Turkey",
               "short_name" : "TR",
               "types" : [ "country", "political" ]
            },
            {
               "long_name" : "41040",
               "short_name" : "41040",
               "types" : [ "postal_code" ]
            }
         ],
         "formatted_address" : "Körfez, Şht. Remzi Cd. No:25, 41040 İzmit/Kocaeli, Turkey",
         "geometry" : {
            "location" : {
               "lat" : 40.7611729,
               "lng" : 29.9511353
            },
            "location_type" : "RANGE_INTERPOLATED",
            "viewport" : {
               "northeast" : {
                  "lat" : 40.7625218802915,
                  "lng" : 29.9524842802915
               },
               "southwest" : {
                  "lat" : 40.7598239197085,
                  "lng" : 29.9497863197085
               }
            }
         },
         "place_id" : "EjxLw7ZyZmV6LCDFnmh0LiBSZW16aSBDZC4gTm86MjUsIDQxMDQwIMSwem1pdC9Lb2NhZWxpLCBUdXJrZXkiGhIYChQKEgmxpPsy9U_LFBGpauGMHi2-LxAZ",
         "types" : [ "street_address" ]
      },
      {
         "address_components" : [
            {
               "long_name" : "QX62+C9",
               "short_name" : "QX62+C9",
               "types" : [ "plus_code" ]
            },
            {
               "long_name" : "İzmit",
               "short_name" : "İzmit",
               "types" : [ "administrative_area_level_2", "political" ]
            },
            {
               "long_name" : "Kocaeli",
               "short_name" : "Kocaeli",
               "types" : [ "administrative_area_level_1", "political" ]
            },
            {
               "long_name" : "Turkey",
               "short_name" : "TR",
               "types" : [ "country", "political" ]
            }
         ],
         "formatted_address" : "QX62+C9 İzmit/Kocaeli, Turkey",
         "geometry" : {
            "bounds" : {
               "northeast" : {
                  "lat" : 40.761125,
                  "lng" : 29.951
               },
               "southwest" : {
                  "lat" : 40.761,
                  "lng" : 29.950875
               }
            },
            "location" : {
               "lat" : 40.7610408,
               "lng" : 29.9509621
            },
            "location_type" : "GEOMETRIC_CENTER",
            "viewport" : {
               "northeast" : {
                  "lat" : 40.7624114802915,
                  "lng" : 29.9522864802915
               },
               "southwest" : {
                  "lat" : 40.7597135197085,
                  "lng" : 29.9495885197085
               }
            }
         },
         "place_id" : "GhIJ-XXxyGlhREARSDyPQHLzPUA",
         "plus_code" : {
            "compound_code" : "QX62+C9 İzmit/Kocaeli, Turkey",
            "global_code" : "8GGFQX62+C9"
         },
         "types" : [ "plus_code" ]
      },
      {
         "address_components" : [
            {
               "long_name" : "6",
               "short_name" : "6",
               "types" : [ "street_number" ]
            },
            {
               "long_name" : "Şehit Remzi Caddesi",
               "short_name" : "Şht. Remzi Cd.",
               "types" : [ "route" ]
            },
            {
               "long_name" : "Körfez",
               "short_name" : "Körfez",
               "types" : [ "administrative_area_level_4", "political" ]
            },
            {
               "long_name" : "İzmit",
               "short_name" : "İzmit",
               "types" : [ "administrative_area_level_2", "political" ]
            },
            {
               "long_name" : "Kocaeli",
               "short_name" : "Kocaeli",
               "types" : [ "administrative_area_level_1", "political" ]
            },
            {
               "long_name" : "Turkey",
               "short_name" : "TR",
               "types" : [ "country", "political" ]
            },
            {
               "long_name" : "41040",
               "short_name" : "41040",
               "types" : [ "postal_code" ]
            }
         ],
         "formatted_address" : "Körfez, Şht. Remzi Cd. No:6, 41040 İzmit/Kocaeli, Turkey",
         "geometry" : {
            "bounds" : {
               "northeast" : {
                  "lat" : 40.7614934,
                  "lng" : 29.9511875
               },
               "southwest" : {
                  "lat" : 40.7609666,
                  "lng" : 29.9510543
               }
            },
            "location" : {
               "lat" : 40.76123,
               "lng" : 29.9511209
            },
            "location_type" : "GEOMETRIC_CENTER",
            "viewport" : {
               "northeast" : {
                  "lat" : 40.7625789802915,
                  "lng" : 29.9524698802915
               },
               "southwest" : {
                  "lat" : 40.7598810197085,
                  "lng" : 29.9497719197085
               }
            }
         },
         "place_id" : "ChIJsaT7MvVPyxQRqGrhjB4tvi8",
         "types" : [ "route" ]
      },
      {
         "address_components" : [
            {
               "long_name" : "41040",
               "short_name" : "41040",
               "types" : [ "postal_code" ]
            },
            {
               "long_name" : "İzmit",
               "short_name" : "İzmit",
               "types" : [ "administrative_area_level_2", "political" ]
            },
            {
               "long_name" : "Kocaeli",
               "short_name" : "Kocaeli",
               "types" : [ "administrative_area_level_1", "political" ]
            },
            {
               "long_name" : "Turkey",
               "short_name" : "TR",
               "types" : [ "country", "political" ]
            }
         ],
         "formatted_address" : "41040 İzmit/Kocaeli, Turkey",
         "geometry" : {
            "bounds" : {
               "northeast" : {
                  "lat" : 40.7653761,
                  "lng" : 29.9631269
               },
               "southwest" : {
                  "lat" : 40.757143,
                  "lng" : 29.9383831
               }
            },
            "location" : {
               "lat" : 40.7610979,
               "lng" : 29.9494804
            },
            "location_type" : "APPROXIMATE",
            "viewport" : {
               "northeast" : {
                  "lat" : 40.7653761,
                  "lng" : 29.9631269
               },
               "southwest" : {
                  "lat" : 40.757143,
                  "lng" : 29.9383831
               }
            }
         },
         "place_id" : "ChIJO3l2zYpPyxQR7-rF8BAGPHU",
         "types" : [ "postal_code" ]
      },
      {
         "address_components" : [
            {
               "long_name" : "Körfez",
               "short_name" : "Körfez",
               "types" : [ "administrative_area_level_4", "political" ]
            },
            {
               "long_name" : "İzmit",
               "short_name" : "İzmit",
               "types" : [ "administrative_area_level_2", "political" ]
            },
            {
               "long_name" : "Kocaeli",
               "short_name" : "Kocaeli",
               "types" : [ "administrative_area_level_1", "political" ]
            },
            {
               "long_name" : "Turkey",
               "short_name" : "TR",
               "types" : [ "country", "political" ]
            },
            {
               "long_name" : "41040",
               "short_name" : "41040",
               "types" : [ "postal_code" ]
            }
         ],
         "formatted_address" : "Körfez, 41040 İzmit/Kocaeli, Turkey",
         "geometry" : {
            "bounds" : {
               "northeast" : {
                  "lat" : 40.765456,
                  "lng" : 29.9631269
               },
               "southwest" : {
                  "lat" : 40.75719,
                  "lng" : 29.9383831
               }
            },
            "location" : {
               "lat" : 40.7610979,
               "lng" : 29.9494804
            },
            "location_type" : "APPROXIMATE",
            "viewport" : {
               "northeast" : {
                  "lat" : 40.765456,
                  "lng" : 29.9631269
               },
               "southwest" : {
                  "lat" : 40.75719,
                  "lng" : 29.9383831
               }
            }
         },
         "place_id" : "ChIJp3VlAbNayxQRYCN59Wi7Ukg",
         "types" : [ "administrative_area_level_4", "political" ]
      },
      {
         "address_components" : [
            {
               "long_name" : "İzmit",
               "short_name" : "İzmit",
               "types" : [ "locality", "political" ]
            },
            {
               "long_name" : "İzmit",
               "short_name" : "İzmit",
               "types" : [ "administrative_area_level_2", "political" ]
            },
            {
               "long_name" : "Kocaeli",
               "short_name" : "Kocaeli",
               "types" : [ "administrative_area_level_1", "political" ]
            },
            {
               "long_name" : "Turkey",
               "short_name" : "TR",
               "types" : [ "country", "political" ]
            }
         ],
         "formatted_address" : "İzmit, Kocaeli, Turkey",
         "geometry" : {
            "bounds" : {
               "northeast" : {
                  "lat" : 40.805401,
                  "lng" : 30.014834
               },
               "southwest" : {
                  "lat" : 40.736827,
                  "lng" : 29.8541681
               }
            },
            "location" : {
               "lat" : 40.7654408,
               "lng" : 29.9408089
            },
            "location_type" : "APPROXIMATE",
            "viewport" : {
               "northeast" : {
                  "lat" : 40.805401,
                  "lng" : 30.014834
               },
               "southwest" : {
                  "lat" : 40.736827,
                  "lng" : 29.8541681
               }
            }
         },
         "place_id" : "ChIJnftLZGZPyxQRuX5rWOcOaYI",
         "types" : [ "locality", "political" ]
      },
      {
         "address_components" : [
            {
               "long_name" : "İzmit",
               "short_name" : "İzmit",
               "types" : [ "administrative_area_level_2", "political" ]
            },
            {
               "long_name" : "Kocaeli",
               "short_name" : "Kocaeli",
               "types" : [ "administrative_area_level_1", "political" ]
            },
            {
               "long_name" : "Turkey",
               "short_name" : "TR",
               "types" : [ "country", "political" ]
            }
         ],
         "formatted_address" : "İzmit/Kocaeli, Turkey",
         "geometry" : {
            "bounds" : {
               "northeast" : {
                  "lat" : 40.971557,
                  "lng" : 30.2639339
               },
               "southwest" : {
                  "lat" : 40.720553,
                  "lng" : 29.8541681
               }
            },
            "location" : {
               "lat" : 40.8506635,
               "lng" : 30.0202964
            },
            "location_type" : "APPROXIMATE",
            "viewport" : {
               "northeast" : {
                  "lat" : 40.971557,
                  "lng" : 30.2639339
               },
               "southwest" : {
                  "lat" : 40.720553,
                  "lng" : 29.8541681
               }
            }
         },
         "place_id" : "ChIJL2DfPLZQyxQRitx6sY9PIGU",
         "types" : [ "administrative_area_level_2", "political" ]
      },
      {
         "address_components" : [
            {
               "long_name" : "Kocaeli",
               "short_name" : "Kocaeli",
               "types" : [ "administrative_area_level_1", "political" ]
            },
            {
               "long_name" : "Turkey",
               "short_name" : "TR",
               "types" : [ "country", "political" ]
            }
         ],
         "formatted_address" : "Kocaeli, Turkey",
         "geometry" : {
            "bounds" : {
               "northeast" : {
                  "lat" : 41.20976,
                  "lng" : 30.367743
               },
               "southwest" : {
                  "lat" : 40.524151,
                  "lng" : 29.3331261
               }
            },
            "location" : {
               "lat" : 40.8532704,
               "lng" : 29.8815203
            },
            "location_type" : "APPROXIMATE",
            "viewport" : {
               "northeast" : {
                  "lat" : 41.20976,
                  "lng" : 30.367743
               },
               "southwest" : {
                  "lat" : 40.524151,
                  "lng" : 29.3331261
               }
            }
         },
         "place_id" : "ChIJQ8zKb5QgyxQRWdhW642zLKg",
         "types" : [ "administrative_area_level_1", "political" ]
      },
      {
         "address_components" : [
            {
               "long_name" : "Turkey",
               "short_name" : "TR",
               "types" : [ "country", "political" ]
            }
         ],
         "formatted_address" : "Turkey",
         "geometry" : {
            "bounds" : {
               "northeast" : {
                  "lat" : 42.3666999,
                  "lng" : 44.8178449
               },
               "southwest" : {
                  "lat" : 35.808592,
                  "lng" : 25.5377
               }
            },
            "location" : {
               "lat" : 38.963745,
               "lng" : 35.243322
            },
            "location_type" : "APPROXIMATE",
            "viewport" : {
               "northeast" : {
                  "lat" : 42.3666999,
                  "lng" : 44.8178449
               },
               "southwest" : {
                  "lat" : 35.808592,
                  "lng" : 25.5377
               }
            }
         },
         "place_id" : "ChIJcSZPllwVsBQRKl9iKtTb2UA",
         "types" : [ "country", "political" ]
      }
   ],
   "status" : "OK"
}
