{
   "plus_code" : {
      "compound_code" : "QW9R+Q45 İzmit/Kocaeli, Turkey",
      "global_code" : "8GGFQW9R+Q45"
   },
   "results" : [
      {
         "address_components" : [
            {
               "long_name" : "14",
               "short_name" : "14",
               "types" : [ "street_number" ]
            },
            {
               "long_name" : "Gazanfer Bilge Bulvarı",
               "short_name" : "Gazanfer Bilge Blv.",
               "types" : [ "route" ]
            },
            {
               "long_name" : "Erenler",
               "short_name" : "Erenler",
               "types" : [ "administrative_area_level_4", "political" ]
            },
            {
               "long_name" : "İzmit",
               "short_name" : "İzmit",
               "types" : [ "administrative_area_level_2", "political" ]
            },
            {
               "long_name" : "Kocaeli",
               "short_name" : "Kocaeli",
               "types" : [ "administrative_area_level_1", "political" ]
            },
            {
               "long_name" : "Turkey",
               "short_name" : "TR",
               "types" : [ "country", "political" ]
            },
            {
               "long_name" : "41060",
               "short_name" : "41060",
               "types" : [ "postal_code" ]
            }
         ],
         "formatted_address" : "Erenler, Gazanfer Bilge Blv. No:14, 41060 İzmit/Kocaeli, Turkey",
         "geometry" : {
            "location" : {
               "lat" : 40.7693129,
               "lng" : 29.9403381
            },
            "location_type" : "ROOFTOP",
            "viewport" : {
               "northeast" : {
                  "lat" : 40.7706618802915,
                  "lng" : 29.9416870802915
               },
               "southwest" : {
                  "lat" : 40.7679639197085,
                  "lng" : 29.9389891197085
               }
            }
         },
         "place_id" : "ChIJx_Lvdo9PyxQRDK8HuNS-rQA",
         "plus_code" : {
            "compound_code" : "QW9R+P4 İzmit/Kocaeli, Turkey",
            "global_code" : "8GGFQW9R+P4"
         },
         "types" : [ "street_address" ]
      },
      {
         "address_components" : [
            {
               "long_name" : "14",
               "short_name" : "14",
               "types" : [ "street_number" ]
            },
            {
               "long_name" : "Gazanfer Bilge Bulvarı",
               "short_name" : "Gazanfer Bilge Blv.",
               "types" : [ "route" ]
            },
            {
               "long_name" : "Erenler",
               "short_name" : "Erenler",
               "types" : [ "administrative_area_level_4", "political" ]
            },
            {
               "long_name" : "İzmit",
               "short_name" : "İzmit",
               "types" : [ "administrative_area_level_2", "political" ]
            },
            {
               "long_name" : "Kocaeli",
               "short_name" : "Kocaeli",
               "types" : [ "administrative_area_level_1", "political" ]
            },
            {
               "long_name" : "Turkey",
               "short_name" : "TR",
               "types" : [ "country", "political" ]
            },
            {
               "long_name" : "41060",
               "short_name" : "41060",
               "types" : [ "postal_code" ]
            }
         ],
         "formatted_address" : "Erenler, Gazanfer Bilge Blv. No:14, 41060 İzmit/Kocaeli, Turkey",
         "geometry" : {
            "location" : {
               "lat" : 40.7693129,
               "lng" : 29.9403381
            },
            "location_type" : "ROOFTOP",
            "viewport" : {
               "northeast" : {
                  "lat" : 40.7706618802915,
                  "lng" : 29.9416870802915
               },
               "southwest" : {
                  "lat" : 40.7679639197085,
                  "lng" : 29.9389891197085
               }
            }
         },
         "place_id" : "ChIJJxytd49PyxQR7GU1ZDXN7jA",
         "plus_code" : {
            "compound_code" : "QW9R+P4 İzmit/Kocaeli, Turkey",
            "global_code" : "8GGFQW9R+P4"
         },
         "types" : [ "establishment", "point_of_interest" ]
      },
      {
         "address_components" : [
            {
               "long_name" : "4",
               "short_name" : "4",
               "types" : [ "street_number" ]
            },
            {
               "long_name" : "Erenler Sokak",
               "short_name" : "Erenler Sk.",
               "types" : [ "route" ]
            },
            {
               "long_name" : "Erenler",
               "short_name" : "Erenler",
               "types" : [ "administrative_area_level_4", "political" ]
            },
            {
               "long_name" : "İzmit",
               "short_name" : "İzmit",
               "types" : [ "administrative_area_level_2", "political" ]
            },
            {
               "long_name" : "Kocaeli",
               "short_name" : "Kocaeli",
               "types" : [ "administrative_area_level_1", "political" ]
            },
            {
               "long_name" : "Turkey",
               "short_name" : "TR",
               "types" : [ "country", "political" ]
            },
            {
               "long_name" : "41060",
               "short_name" : "41060",
               "types" : [ "postal_code" ]
            }
         ],
         "formatted_address" : "Erenler, Erenler Sk. No:4, 41060 İzmit/Kocaeli, Turkey",
         "geometry" : {
            "location" : {
               "lat" : 40.7695453,
               "lng" : 29.9404304
            },
            "location_type" : "RANGE_INTERPOLATED",
            "viewport" : {
               "northeast" : {
                  "lat" : 40.77089428029149,
                  "lng" : 29.9417793802915
               },
               "southwest" : {
                  "lat" : 40.7681963197085,
                  "lng" : 29.9390814197085
               }
            }
         },
         "place_id" : "EjdFcmVubGVyLCBFcmVubGVyIFNrLiBObzo0LCA0MTA2MCDEsHptaXQvS29jYWVsaSwgVHVya2V5IhoSGAoUChIJg7pHdo9PyxQRQN-NugSJj_EQBA",
         "types" : [ "street_address" ]
      },
      {
         "address_components" : [
            {
               "long_name" : "QW9R+Q4",
               "short_name" : "QW9R+Q4",
               "types" : [ "plus_code" ]
            },
            {
               "long_name" : "İzmit",
               "short_name" : "İzmit",
               "types" : [ "administrative_area_level_2", "political" ]
            },
            {
               "long_name" : "Kocaeli",
               "short_name" : "Kocaeli",
               "types" : [ "administrative_area_level_1", "political" ]
            },
            {
               "long_name" : "Turkey",
               "short_name" : "TR",
               "types" : [ "country", "political" ]
            }
         ],
         "formatted_address" : "QW9R+Q4 İzmit/Kocaeli, Turkey",
         "geometry" : {
            "bounds" : {
               "northeast" : {
                  "lat" : 40.7695,
                  "lng" : 29.940375
               },
               "southwest" : {
                  "lat" : 40.769375,
                  "lng" : 29.94025
               }
            },
            "location" : {
               "lat" : 40.76939429999999,
               "lng" : 29.940362
            },
            "location_type" : "GEOMETRIC_CENTER",
            "viewport" : {
               "northeast" : {
                  "lat" : 40.7707864802915,
                  "lng" : 29.9416614802915
               },
               "southwest" : {
                  "lat" : 40.7680885197085,
                  "lng" : 29.9389635197085
               }
            }
         },
         "place_id" : "GhIJSR0ug3tiREARsmZkkLvwPUA",
         "plus_code" : {
            "compound_code" : "QW9R+Q4 İzmit/Kocaeli, Turkey",
            "global_code" : "8GGFQW9R+Q4"
         },
         "types" : [ "plus_code" ]
      },
      {
         "address_components" : [
            {
               "long_name" : "4",
               "short_name" : "4",
               "types" : [ "street_number" ]
            },
            {
               "long_name" : "Erenler Sokak",
               "short_name" : "Erenler Sk.",
               "types" : [ "route" ]
            },
            {
               "long_name" : "Erenler",
               "short_name" : "Erenler",
               "types" : [ "administrative_area_level_4", "political" ]
            },
            {
               "long_name" : "İzmit",
               "short_name" : "İzmit",
               "types" : [ "administrative_area_level_2", "political" ]
            },
            {
               "long_name" : "Kocaeli",
               "short_name" : "Kocaeli",
               "types" : [ "administrative_area_level_1", "political" ]
            },
            {
               "long_name" : "Turkey",
               "short_name" : "TR",
               "types" : [ "country", "political" ]
            },
            {
               "long_name" : "41060",
               "short_name" : "41060",
               "types" : [ "postal_code" ]
            }
         ],
         "formatted_address" : "Erenler, Erenler Sk. No:4, 41060 İzmit/Kocaeli, Turkey",
         "geometry" : {
            "bounds" : {
               "northeast" : {
                  "lat" : 40.76958080000001,
                  "lng" : 29.9405238
               },
               "southwest" : {
                  "lat" : 40.7694501,
                  "lng" : 29.94018
               }
            },
            "location" : {
               "lat" : 40.7695155,
               "lng" : 29.9403519
            },
            "location_type" : "GEOMETRIC_CENTER",
            "viewport" : {
               "northeast" : {
                  "lat" : 40.7708644302915,
                  "lng" : 29.9417008802915
               },
               "southwest" : {
                  "lat" : 40.7681664697085,
                  "lng" : 29.9390029197085
               }
            }
         },
         "place_id" : "ChIJg7pHdo9PyxQRQN-NugSJj_E",
         "types" : [ "route" ]
      },
      {
         "address_components" : [
            {
               "long_name" : "Erenler",
               "short_name" : "Erenler",
               "types" : [ "administrative_area_level_4", "political" ]
            },
            {
               "long_name" : "İzmit",
               "short_name" : "İzmit",
               "types" : [ "administrative_area_level_2", "political" ]
            },
            {
               "long_name" : "Kocaeli",
               "short_name" : "Kocaeli",
               "types" : [ "administrative_area_level_1", "political" ]
            },
            {
               "long_name" : "Turkey",
               "short_name" : "TR",
               "types" : [ "country", "political" ]
            },
            {
               "long_name" : "41060",
               "short_name" : "41060",
               "types" : [ "postal_code" ]
            }
         ],
         "formatted_address" : "Erenler, 41060 İzmit/Kocaeli, Turkey",
         "geometry" : {
            "bounds" : {
               "northeast" : {
                  "lat" : 40.78165509999999,
                  "lng" : 29.94917999999999
               },
               "southwest" : {
                  "lat" : 40.768521,
                  "lng" : 29.937464
               }
            },
            "location" : {
               "lat" : 40.7766241,
               "lng" : 29.9436979
            },
            "location_type" : "APPROXIMATE",
            "viewport" : {
               "northeast" : {
                  "lat" : 40.78165509999999,
                  "lng" : 29.94917999999999
               },
               "southwest" : {
                  "lat" : 40.768521,
                  "lng" : 29.937464
               }
            }
         },
         "place_id" : "ChIJ6_NlM5FPyxQRqnfbY372WDk",
         "types" : [ "administrative_area_level_4", "political" ]
      },
      {
         "address_components" : [
            {
               "long_name" : "41060",
               "short_name" : "41060",
               "types" : [ "postal_code" ]
            },
            {
               "long_name" : "Erenler",
               "short_name" : "Erenler",
               "types" : [ "administrative_area_level_4", "political" ]
            },
            {
               "long_name" : "İzmit",
               "short_name" : "İzmit",
               "types" : [ "administrative_area_level_2", "political" ]
            },
            {
               "long_name" : "Kocaeli",
               "short_name" : "Kocaeli",
               "types" : [ "administrative_area_level_1", "political" ]
            },
            {
               "long_name" : "Turkey",
               "short_name" : "TR",
               "types" : [ "country", "political" ]
            }
         ],
         "formatted_address" : "Erenler, 41060 İzmit/Kocaeli, Turkey",
         "geometry" : {
            "bounds" : {
               "northeast" : {
                  "lat" : 40.78165509999999,
                  "lng" : 29.94917999999999
               },
               "southwest" : {
                  "lat" : 40.768521,
                  "lng" : 29.937464
               }
            },
            "location" : {
               "lat" : 40.7766241,
               "lng" : 29.9436979
            },
            "location_type" : "APPROXIMATE",
            "viewport" : {
               "northeast" : {
                  "lat" : 40.78165509999999,
                  "lng" : 29.94917999999999
               },
               "southwest" : {
                  "lat" : 40.768521,
                  "lng" : 29.937464
               }
            }
         },
         "place_id" : "ChIJy3DMMJFPyxQR-jTIsIyfBZg",
         "types" : [ "postal_code" ]
      },
      {
         "address_components" : [
            {
               "long_name" : "İzmit",
               "short_name" : "İzmit",
               "types" : [ "locality", "political" ]
            },
            {
               "long_name" : "İzmit",
               "short_name" : "İzmit",
               "types" : [ "administrative_area_level_2", "political" ]
            },
            {
               "long_name" : "Kocaeli",
               "short_name" : "Kocaeli",
               "types" : [ "administrative_area_level_1", "political" ]
            },
            {
               "long_name" : "Turkey",
               "short_name" : "TR",
               "types" : [ "country", "political" ]
            }
         ],
         "formatted_address" : "İzmit, Kocaeli, Turkey",
         "geometry" : {
            "bounds" : {
               "northeast" : {
                  "lat" : 40.805401,
                  "lng" : 30.014834
               },
               "southwest" : {
                  "lat" : 40.736827,
                  "lng" : 29.8541681
               }
            },
            "location" : {
               "lat" : 40.7654408,
               "lng" : 29.9408089
            },
            "location_type" : "APPROXIMATE",
            "viewport" : {
               "northeast" : {
                  "lat" : 40.805401,
                  "lng" : 30.014834
               },
               "southwest" : {
                  "lat" : 40.736827,
                  "lng" : 29.8541681
               }
            }
         },
         "place_id" : "ChIJnftLZGZPyxQRuX5rWOcOaYI",
         "types" : [ "locality", "political" ]
      },
      {
         "address_components" : [
            {
               "long_name" : "İzmit",
               "short_name" : "İzmit",
               "types" : [ "administrative_area_level_2", "political" ]
            },
            {
               "long_name" : "Kocaeli",
               "short_name" : "Kocaeli",
               "types" : [ "administrative_area_level_1", "political" ]
            },
            {
               "long_name" : "Turkey",
               "short_name" : "TR",
               "types" : [ "country", "political" ]
            }
         ],
         "formatted_address" : "İzmit/Kocaeli, Turkey",
         "geometry" : {
            "bounds" : {
               "northeast" : {
                  "lat" : 40.971557,
                  "lng" : 30.2639339
               },
               "southwest" : {
                  "lat" : 40.720553,
                  "lng" : 29.8541681
               }
            },
            "location" : {
               "lat" : 40.8506635,
               "lng" : 30.0202964
            },
            "location_type" : "APPROXIMATE",
            "viewport" : {
               "northeast" : {
                  "lat" : 40.971557,
                  "lng" : 30.2639339
               },
               "southwest" : {
                  "lat" : 40.720553,
                  "lng" : 29.8541681
               }
            }
         },
         "place_id" : "ChIJL2DfPLZQyxQRitx6sY9PIGU",
         "types" : [ "administrative_area_level_2", "political" ]
      },
      {
         "address_components" : [
            {
               "long_name" : "Kocaeli",
               "short_name" : "Kocaeli",
               "types" : [ "administrative_area_level_1", "political" ]
            },
            {
               "long_name" : "Turkey",
               "short_name" : "TR",
               "types" : [ "country", "political" ]
            }
         ],
         "formatted_address" : "Kocaeli, Turkey",
         "geometry" : {
            "bounds" : {
               "northeast" : {
                  "lat" : 41.20976,
                  "lng" : 30.367743
               },
               "southwest" : {
                  "lat" : 40.524151,
                  "lng" : 29.3331261
               }
            },
            "location" : {
               "lat" : 40.8532704,
               "lng" : 29.8815203
            },
            "location_type" : "APPROXIMATE",
            "viewport" : {
               "northeast" : {
                  "lat" : 41.20976,
                  "lng" : 30.367743
               },
               "southwest" : {
                  "lat" : 40.524151,
                  "lng" : 29.3331261
               }
            }
         },
         "place_id" : "ChIJQ8zKb5QgyxQRWdhW642zLKg",
         "types" : [ "administrative_area_level_1", "political" ]
      },
      {
         "address_components" : [
            {
               "long_name" : "Turkey",
               "short_name" : "TR",
               "types" : [ "country", "political" ]
            }
         ],
         "formatted_address" : "Turkey",
         "geometry" : {
            "bounds" : {
               "northeast" : {
                  "lat" : 42.3666999,
                  "lng" : 44.8178449
               },
               "southwest" : {
                  "lat" : 35.808592,
                  "lng" : 25.5377
               }
            },
            "location" : {
               "lat" : 38.963745,
               "lng" : 35.243322
            },
            "location_type" : "APPROXIMATE",
            "viewport" : {
               "northeast" : {
                  "lat" : 42.3666999,
                  "lng" : 44.8178449
               },
               "southwest" : {
                  "lat" : 35.808592,
                  "lng" : 25.5377
               }
            }
         },
         "place_id" : "ChIJcSZPllwVsBQRKl9iKtTb2UA",
         "types" : [ "country", "political" ]
      }
   ],
   "status" : "OK"
}
