{
   "plus_code" : {
      "compound_code" : "QW9P+7Q2 İzmit/Kocaeli, Turkey",
      "global_code" : "8GGFQW9P+7Q2"
   },
   "results" : [
      {
         "address_components" : [
            {
               "long_name" : "53",
               "short_name" : "53",
               "types" : [ "street_number" ]
            },
            {
               "long_name" : "Maslak Sokak",
               "short_name" : "Maslak Sk.",
               "types" : [ "route" ]
            },
            {
               "long_name" : "Cedit",
               "short_name" : "Cedit",
               "types" : [ "administrative_area_level_4", "political" ]
            },
            {
               "long_name" : "İzmit",
               "short_name" : "İzmit",
               "types" : [ "administrative_area_level_2", "political" ]
            },
            {
               "long_name" : "Kocaeli",
               "short_name" : "Kocaeli",
               "types" : [ "administrative_area_level_1", "political" ]
            },
            {
               "long_name" : "Turkey",
               "short_name" : "TR",
               "types" : [ "country", "political" ]
            },
            {
               "long_name" : "41300",
               "short_name" : "41300",
               "types" : [ "postal_code" ]
            }
         ],
         "formatted_address" : "Cedit, Maslak Sk. No:53, 41300 İzmit/Kocaeli, Turkey",
         "geometry" : {
            "location" : {
               "lat" : 40.7681536,
               "lng" : 29.9369077
            },
            "location_type" : "ROOFTOP",
            "viewport" : {
               "northeast" : {
                  "lat" : 40.7695025802915,
                  "lng" : 29.9382566802915
               },
               "southwest" : {
                  "lat" : 40.7668046197085,
                  "lng" : 29.9355587197085
               }
            }
         },
         "place_id" : "ChIJNzMB1oVPyxQRYnEs1YibsH4",
         "plus_code" : {
            "compound_code" : "QW9P+7Q İzmit/Kocaeli, Turkey",
            "global_code" : "8GGFQW9P+7Q"
         },
         "types" : [ "street_address" ]
      },
      {
         "address_components" : [
            {
               "long_name" : "54",
               "short_name" : "54",
               "types" : [ "street_number" ]
            },
            {
               "long_name" : "Maslak Sokak",
               "short_name" : "Maslak Sk.",
               "types" : [ "route" ]
            },
            {
               "long_name" : "Cedit",
               "short_name" : "Cedit",
               "types" : [ "administrative_area_level_4", "political" ]
            },
            {
               "long_name" : "İzmit",
               "short_name" : "İzmit",
               "types" : [ "administrative_area_level_2", "political" ]
            },
            {
               "long_name" : "Kocaeli",
               "short_name" : "Kocaeli",
               "types" : [ "administrative_area_level_1", "political" ]
            },
            {
               "long_name" : "Turkey",
               "short_name" : "TR",
               "types" : [ "country", "political" ]
            },
            {
               "long_name" : "41300",
               "short_name" : "41300",
               "types" : [ "postal_code" ]
            }
         ],
         "formatted_address" : "Cedit, Maslak Sk. No:54, 41300 İzmit/Kocaeli, Turkey",
         "geometry" : {
            "location" : {
               "lat" : 40.7681764,
               "lng" : 29.93694559999999
            },
            "location_type" : "RANGE_INTERPOLATED",
            "viewport" : {
               "northeast" : {
                  "lat" : 40.7695253802915,
                  "lng" : 29.93829458029149
               },
               "southwest" : {
                  "lat" : 40.76682741970851,
                  "lng" : 29.93559661970849
               }
            }
         },
         "place_id" : "EjVDZWRpdCwgTWFzbGFrIFNrLiBObzo1NCwgNDEzMDAgxLB6bWl0L0tvY2FlbGksIFR1cmtleSIaEhgKFAoSCTGG7IaGT8sUETZrMOSK8aF0EDY",
         "types" : [ "street_address" ]
      },
      {
         "address_components" : [
            {
               "long_name" : "QW9P+7Q",
               "short_name" : "QW9P+7Q",
               "types" : [ "plus_code" ]
            },
            {
               "long_name" : "İzmit",
               "short_name" : "İzmit",
               "types" : [ "administrative_area_level_2", "political" ]
            },
            {
               "long_name" : "Kocaeli",
               "short_name" : "Kocaeli",
               "types" : [ "administrative_area_level_1", "political" ]
            },
            {
               "long_name" : "Turkey",
               "short_name" : "TR",
               "types" : [ "country", "political" ]
            }
         ],
         "formatted_address" : "QW9P+7Q İzmit/Kocaeli, Turkey",
         "geometry" : {
            "bounds" : {
               "northeast" : {
                  "lat" : 40.76824999999999,
                  "lng" : 29.937
               },
               "southwest" : {
                  "lat" : 40.768125,
                  "lng" : 29.936875
               }
            },
            "location" : {
               "lat" : 40.7681267,
               "lng" : 29.9368858
            },
            "location_type" : "GEOMETRIC_CENTER",
            "viewport" : {
               "northeast" : {
                  "lat" : 40.7695364802915,
                  "lng" : 29.9382864802915
               },
               "southwest" : {
                  "lat" : 40.7668385197085,
                  "lng" : 29.9355885197085
               }
            }
         },
         "place_id" : "GhIJmtfH-VFiREARORZvv9fvPUA",
         "plus_code" : {
            "compound_code" : "QW9P+7Q İzmit/Kocaeli, Turkey",
            "global_code" : "8GGFQW9P+7Q"
         },
         "types" : [ "plus_code" ]
      },
      {
         "address_components" : [
            {
               "long_name" : "20-57",
               "short_name" : "20-57",
               "types" : [ "street_number" ]
            },
            {
               "long_name" : "Maslak Sokak",
               "short_name" : "Maslak Sk.",
               "types" : [ "route" ]
            },
            {
               "long_name" : "Cedit",
               "short_name" : "Cedit",
               "types" : [ "administrative_area_level_4", "political" ]
            },
            {
               "long_name" : "İzmit",
               "short_name" : "İzmit",
               "types" : [ "administrative_area_level_2", "political" ]
            },
            {
               "long_name" : "Kocaeli",
               "short_name" : "Kocaeli",
               "types" : [ "administrative_area_level_1", "political" ]
            },
            {
               "long_name" : "Turkey",
               "short_name" : "TR",
               "types" : [ "country", "political" ]
            },
            {
               "long_name" : "41300",
               "short_name" : "41300",
               "types" : [ "postal_code" ]
            }
         ],
         "formatted_address" : "Cedit, Maslak Sk. 20-57, 41300 İzmit/Kocaeli, Turkey",
         "geometry" : {
            "bounds" : {
               "northeast" : {
                  "lat" : 40.7682738,
                  "lng" : 29.9370812
               },
               "southwest" : {
                  "lat" : 40.76753,
                  "lng" : 29.93529569999999
               }
            },
            "location" : {
               "lat" : 40.7679686,
               "lng" : 29.9361848
            },
            "location_type" : "GEOMETRIC_CENTER",
            "viewport" : {
               "northeast" : {
                  "lat" : 40.76925088029149,
                  "lng" : 29.9375374302915
               },
               "southwest" : {
                  "lat" : 40.7665529197085,
                  "lng" : 29.9348394697085
               }
            }
         },
         "place_id" : "ChIJMYbshoZPyxQRNmsw5IrxoXQ",
         "types" : [ "route" ]
      },
      {
         "address_components" : [
            {
               "long_name" : "41300",
               "short_name" : "41300",
               "types" : [ "postal_code" ]
            },
            {
               "long_name" : "Cedit",
               "short_name" : "Cedit",
               "types" : [ "administrative_area_level_4", "political" ]
            },
            {
               "long_name" : "İzmit",
               "short_name" : "İzmit",
               "types" : [ "administrative_area_level_2", "political" ]
            },
            {
               "long_name" : "Kocaeli",
               "short_name" : "Kocaeli",
               "types" : [ "administrative_area_level_1", "political" ]
            },
            {
               "long_name" : "Turkey",
               "short_name" : "TR",
               "types" : [ "country", "political" ]
            }
         ],
         "formatted_address" : "Cedit, 41300 İzmit/Kocaeli, Turkey",
         "geometry" : {
            "bounds" : {
               "northeast" : {
                  "lat" : 40.773598,
                  "lng" : 29.9407609
               },
               "southwest" : {
                  "lat" : 40.764453,
                  "lng" : 29.932455
               }
            },
            "location" : {
               "lat" : 40.7690192,
               "lng" : 29.9379151
            },
            "location_type" : "APPROXIMATE",
            "viewport" : {
               "northeast" : {
                  "lat" : 40.773598,
                  "lng" : 29.9407609
               },
               "southwest" : {
                  "lat" : 40.764453,
                  "lng" : 29.932455
               }
            }
         },
         "place_id" : "ChIJWb3yzIVPyxQRro8SxMjuEKQ",
         "types" : [ "postal_code" ]
      },
      {
         "address_components" : [
            {
               "long_name" : "Cedit",
               "short_name" : "Cedit",
               "types" : [ "administrative_area_level_4", "political" ]
            },
            {
               "long_name" : "İzmit",
               "short_name" : "İzmit",
               "types" : [ "administrative_area_level_2", "political" ]
            },
            {
               "long_name" : "Kocaeli",
               "short_name" : "Kocaeli",
               "types" : [ "administrative_area_level_1", "political" ]
            },
            {
               "long_name" : "Turkey",
               "short_name" : "TR",
               "types" : [ "country", "political" ]
            }
         ],
         "formatted_address" : "Cedit, İzmit/Kocaeli, Turkey",
         "geometry" : {
            "bounds" : {
               "northeast" : {
                  "lat" : 40.773598,
                  "lng" : 29.942349
               },
               "southwest" : {
                  "lat" : 40.764453,
                  "lng" : 29.932455
               }
            },
            "location" : {
               "lat" : 40.7690192,
               "lng" : 29.9379151
            },
            "location_type" : "APPROXIMATE",
            "viewport" : {
               "northeast" : {
                  "lat" : 40.773598,
                  "lng" : 29.942349
               },
               "southwest" : {
                  "lat" : 40.764453,
                  "lng" : 29.932455
               }
            }
         },
         "place_id" : "ChIJIZ8AzYVPyxQRSDAbAY4BRlk",
         "types" : [ "administrative_area_level_4", "political" ]
      },
      {
         "address_components" : [
            {
               "long_name" : "İzmit",
               "short_name" : "İzmit",
               "types" : [ "locality", "political" ]
            },
            {
               "long_name" : "İzmit",
               "short_name" : "İzmit",
               "types" : [ "administrative_area_level_2", "political" ]
            },
            {
               "long_name" : "Kocaeli",
               "short_name" : "Kocaeli",
               "types" : [ "administrative_area_level_1", "political" ]
            },
            {
               "long_name" : "Turkey",
               "short_name" : "TR",
               "types" : [ "country", "political" ]
            }
         ],
         "formatted_address" : "İzmit, Kocaeli, Turkey",
         "geometry" : {
            "bounds" : {
               "northeast" : {
                  "lat" : 40.805401,
                  "lng" : 30.014834
               },
               "southwest" : {
                  "lat" : 40.736827,
                  "lng" : 29.8541681
               }
            },
            "location" : {
               "lat" : 40.7654408,
               "lng" : 29.9408089
            },
            "location_type" : "APPROXIMATE",
            "viewport" : {
               "northeast" : {
                  "lat" : 40.805401,
                  "lng" : 30.014834
               },
               "southwest" : {
                  "lat" : 40.736827,
                  "lng" : 29.8541681
               }
            }
         },
         "place_id" : "ChIJnftLZGZPyxQRuX5rWOcOaYI",
         "types" : [ "locality", "political" ]
      },
      {
         "address_components" : [
            {
               "long_name" : "İzmit",
               "short_name" : "İzmit",
               "types" : [ "administrative_area_level_2", "political" ]
            },
            {
               "long_name" : "Kocaeli",
               "short_name" : "Kocaeli",
               "types" : [ "administrative_area_level_1", "political" ]
            },
            {
               "long_name" : "Turkey",
               "short_name" : "TR",
               "types" : [ "country", "political" ]
            }
         ],
         "formatted_address" : "İzmit/Kocaeli, Turkey",
         "geometry" : {
            "bounds" : {
               "northeast" : {
                  "lat" : 40.971557,
                  "lng" : 30.2639339
               },
               "southwest" : {
                  "lat" : 40.720553,
                  "lng" : 29.8541681
               }
            },
            "location" : {
               "lat" : 40.8506635,
               "lng" : 30.0202964
            },
            "location_type" : "APPROXIMATE",
            "viewport" : {
               "northeast" : {
                  "lat" : 40.971557,
                  "lng" : 30.2639339
               },
               "southwest" : {
                  "lat" : 40.720553,
                  "lng" : 29.8541681
               }
            }
         },
         "place_id" : "ChIJL2DfPLZQyxQRitx6sY9PIGU",
         "types" : [ "administrative_area_level_2", "political" ]
      },
      {
         "address_components" : [
            {
               "long_name" : "Kocaeli",
               "short_name" : "Kocaeli",
               "types" : [ "administrative_area_level_1", "political" ]
            },
            {
               "long_name" : "Turkey",
               "short_name" : "TR",
               "types" : [ "country", "political" ]
            }
         ],
         "formatted_address" : "Kocaeli, Turkey",
         "geometry" : {
            "bounds" : {
               "northeast" : {
                  "lat" : 41.20976,
                  "lng" : 30.367743
               },
               "southwest" : {
                  "lat" : 40.524151,
                  "lng" : 29.3331261
               }
            },
            "location" : {
               "lat" : 40.8532704,
               "lng" : 29.8815203
            },
            "location_type" : "APPROXIMATE",
            "viewport" : {
               "northeast" : {
                  "lat" : 41.20976,
                  "lng" : 30.367743
               },
               "southwest" : {
                  "lat" : 40.524151,
                  "lng" : 29.3331261
               }
            }
         },
         "place_id" : "ChIJQ8zKb5QgyxQRWdhW642zLKg",
         "types" : [ "administrative_area_level_1", "political" ]
      },
      {
         "address_components" : [
            {
               "long_name" : "Turkey",
               "short_name" : "TR",
               "types" : [ "country", "political" ]
            }
         ],
         "formatted_address" : "Turkey",
         "geometry" : {
            "bounds" : {
               "northeast" : {
                  "lat" : 42.3666999,
                  "lng" : 44.8178449
               },
               "southwest" : {
                  "lat" : 35.808592,
                  "lng" : 25.5377
               }
            },
            "location" : {
               "lat" : 38.963745,
               "lng" : 35.243322
            },
            "location_type" : "APPROXIMATE",
            "viewport" : {
               "northeast" : {
                  "lat" : 42.3666999,
                  "lng" : 44.8178449
               },
               "southwest" : {
                  "lat" : 35.808592,
                  "lng" : 25.5377
               }
            }
         },
         "place_id" : "ChIJcSZPllwVsBQRKl9iKtTb2UA",
         "types" : [ "country", "political" ]
      }
   ],
   "status" : "OK"
}
